zip,pct_poverty,pct_black,pct_college_plus,pct_mortgage,lat,lng,city,state_id,state_name,zcta,parent_zcta,population,density,county_fips,county_name,county_weights,county_names_all,county_fips_all,imprecise,military,timezone,cluster
32409,0.1169792694965449,0.0051261829652996,0.130453078973208,0.5842839036755386,30.33447,-85.70516,Panama City,FL,Florida,True,,10941.0,33.4,12005,Bay,"{""12005"": 100}",Bay,12005,False,False,America/Chicago,0
32459,0.0609258395522388,0.0074362400511241,0.4337201260278183,0.7058096415327565,30.36527,-86.18429,Santa Rosa Beach,FL,Florida,True,,22104.0,156.6,12131,Walton,"{""12131"": 100}",Walton,12131,False,False,America/Chicago,2
32460,0.1567425569176882,0.2884007029876977,0.0740318906605922,0.283363802559415,30.77565,-84.94949,Sneads,FL,Florida,True,,5303.0,28.1,12063,Jackson,"{""12063"": 100}",Jackson,12063,False,False,America/Chicago,0
32463,0.287037037037037,0.1064814814814814,0.0,0.2647058823529412,30.6279,-85.58728,Wausau,FL,Florida,True,,196.0,168.3,12133,Washington,"{""12133"": 100}",Washington,12133,False,False,America/Chicago,0
32531,0.1792264390775376,0.0186391603329714,0.1547305389221556,0.4737967914438503,30.88513,-86.696,Baker,FL,Florida,True,,7445.0,12.6,12091,Okaloosa,"{""12091"": 87.95, ""12113"": 12.05}",Okaloosa|Santa Rosa,12091|12113,False,False,America/Chicago,0
32547,0.1326049826255963,0.129595106321002,0.2797301096429575,0.5947574992991309,30.46649,-86.65513,Fort Walton Beach,FL,Florida,True,,35522.0,473.1,12091,Okaloosa,"{""12091"": 100}",Okaloosa,12091,False,False,America/Chicago,2
32561,0.0580135668725321,0.0126952141057934,0.5625084470874443,0.6297258297258297,30.35165,-87.10906,Gulf Breeze,FL,Florida,True,,9254.0,296.8,12033,Escambia,"{""12033"": 77.78, ""12113"": 22.22}",Escambia|Santa Rosa,12033|12113,False,False,America/Chicago,2
32565,0.0703650826024882,0.0319106501794974,0.178981061616431,0.4837905236907731,30.89241,-87.14071,Jay,FL,Florida,True,,5653.0,9.5,12113,Santa Rosa,"{""12113"": 100}",Santa Rosa,12113,False,False,America/Chicago,0
32570,0.1379131561892417,0.0726205290194952,0.2004220377081517,0.632752787871194,30.80022,-86.98158,Milton,FL,Florida,True,,35751.0,45.8,12113,Santa Rosa,"{""12113"": 100}",Santa Rosa,12113,False,False,America/Chicago,2
32606,0.0710857828434313,0.0933794044876717,0.60259756400696,0.621733720447947,29.68169,-82.44391,Gainesville,FL,Florida,True,,23313.0,584.7,12001,Alachua,"{""12001"": 100}",Alachua,12001,False,False,America/New_York,2
32615,0.1208864021202974,0.2104143747708104,0.3741082668904742,0.5873750913965391,29.81706,-82.49065,Alachua,FL,Florida,True,,16244.0,45.5,12001,Alachua,"{""12001"": 100}",Alachua,12001,False,False,America/New_York,2
32617,0.1992953094032151,0.1810173970491081,0.1325115562403698,0.5687732342007435,29.30659,-82.07553,Anthony,FL,Florida,True,,4859.0,62.8,12083,Marion,"{""12083"": 100}",Marion,12083,False,False,America/New_York,0
32639,0.0,0.0,0.1935483870967742,0.2325581395348837,29.23092,-82.72007,Gulf Hammock,FL,Florida,True,,229.0,1.9,12075,Levy,"{""12075"": 100}",Levy,12075,False,False,America/New_York,0
32653,0.1041518048223712,0.1635067712045616,0.474798188619807,0.5288648648648648,29.74506,-82.40546,Gainesville,FL,Florida,True,,15457.0,155.2,12001,Alachua,"{""12001"": 100}",Alachua,12001,False,False,America/New_York,2
32680,0.2430223285486443,0.0233750863004241,0.1097260096091416,0.2882033704655812,29.58144,-83.08041,Old Town,FL,Florida,True,,10445.0,11.8,12029,Dixie,"{""12029"": 100}",Dixie,12029,False,False,America/New_York,0
32693,0.1868508813720819,0.0929978118161925,0.1229749631811487,0.4565859421145894,29.62814,-82.79446,Trenton,FL,Florida,True,,11692.0,22.5,12041,Gilchrist,"{""12041"": 75.13, ""12075"": 24.87}",Gilchrist|Levy,12041|12075,False,False,America/New_York,0
32127,0.150398571097807,0.0413514046976774,0.257596744870574,0.483204134366925,29.10866,-80.97907,Port Orange,FL,Florida,True,,28430.0,737.9,12127,Volusia,"{""12127"": 100}",Volusia,12127,False,False,America/New_York,0
32136,0.1034192150252829,0.0250421382133397,0.3372615039281706,0.4439324116743471,29.45252,-81.14025,Flagler Beach,FL,Florida,True,,8303.0,180.8,12035,Flagler,"{""12035"": 90.25, ""12127"": 9.75}",Flagler|Volusia,12035|12127,False,False,America/New_York,2
32193,0.2615606936416185,0.4,0.0938775510204081,0.2875536480686695,29.47605,-81.6647,Welaka,FL,Florida,True,,1200.0,129.9,12107,Putnam,"{""12107"": 100}",Putnam,12107,False,False,America/New_York,1
32195,0.1189336978810663,0.0266575529733424,0.1090192644483362,0.6044487427466151,28.9854,-81.89814,Weirsdale,FL,Florida,True,,3282.0,51.9,12083,Marion,"{""12083"": 87.29, ""12069"": 12.71}",Marion|Lake,12083|12069,False,False,America/New_York,0
32040,0.1943607993430057,0.0458452722063037,0.1325837929571489,0.5476878612716763,30.24696,-82.23531,Glen Saint Mary,FL,Florida,True,,8754.0,27.9,12003,Baker,"{""12003"": 100}",Baker,12003,False,False,America/New_York,0
32044,0.2793687901811806,0.0438340151957919,0.0997547015535568,0.4956672443674176,29.85344,-82.16425,Hampton,FL,Florida,True,,2394.0,52.9,12007,Bradford,"{""12007"": 93.73, ""12001"": 6.27}",Bradford|Alachua,12007|12001,False,False,America/New_York,0
32112,0.2757663847780127,0.1179701804865289,0.0995150339476236,0.370048309178744,29.42664,-81.55649,Crescent City,FL,Florida,True,,8099.0,60.8,12107,Putnam,"{""12107"": 100}",Putnam,12107,False,False,America/New_York,0
32140,0.2084781097984711,0.0,0.0407632263660017,0.2863157894736842,29.76274,-81.86306,Florahome,FL,Florida,True,,1558.0,18.0,12107,Putnam,"{""12107"": 90.17, ""12019"": 9.83}",Putnam|Clay,12107|12019,False,False,America/New_York,0
32147,0.2920110192837465,0.0,0.405152224824356,0.3173652694610778,29.63157,-81.79577,Hollister,FL,Florida,True,,1682.0,21.8,12107,Putnam,"{""12107"": 100}",Putnam,12107,False,False,America/New_York,0
32535,0.1279653284671532,0.3076796849360026,0.0891496808729668,0.3861066235864297,30.96515,-87.34673,Century,FL,Florida,True,,5880.0,32.2,12033,Escambia,"{""12033"": 100}",Escambia,12033,False,False,America/Chicago,0
32583,0.1142449424997901,0.1115613825983313,0.1752469388684054,0.6137034849379799,30.60084,-86.97513,Milton,FL,Florida,True,,31415.0,97.0,12113,Santa Rosa,"{""12113"": 100}",Santa Rosa,12113,False,False,America/Chicago,0
32601,0.4239335180055402,0.2336931260651758,0.4630054189245519,0.5058939096267191,29.64886,-82.32506,Gainesville,FL,Florida,True,,23296.0,1956.4,12001,Alachua,"{""12001"": 100}",Alachua,12001,False,False,America/New_York,1
32626,0.2622445484644365,0.1047597358232748,0.1151181102362204,0.3502155172413793,29.42146,-82.89464,Chiefland,FL,Florida,True,,8994.0,14.3,12075,Levy,"{""12075"": 100}",Levy,12075,False,False,America/New_York,0
32643,0.1413118131868131,0.073461340648037,0.2294172062904718,0.5849300880372864,29.81845,-82.64155,High Springs,FL,Florida,True,,11495.0,39.6,12001,Alachua,"{""12001"": 52.23, ""12041"": 35.03, ""12023"": 12.74}",Alachua|Gilchrist|Columbia,12001|12041|12023,False,False,America/New_York,0
32656,0.1250578359442131,0.0031023102310231,0.1576517150395778,0.6035788024776325,29.82533,-81.95287,Keystone Heights,FL,Florida,True,,15630.0,86.0,12019,Clay,"{""12019"": 95.35, ""12007"": 4.65}",Clay|Bradford,12019|12007,False,False,America/New_York,0
32664,0.0423280423280423,0.0,0.3280757097791798,0.4469696969696969,29.44986,-82.22187,McIntosh,FL,Florida,True,,408.0,189.3,12083,Marion,"{""12083"": 100}",Marion,12083,False,False,America/New_York,2
32666,0.1730192076830732,0.0955882352941176,0.182720953326713,0.5360419397116645,29.72301,-81.99145,Melrose,FL,Florida,True,,5542.0,37.6,12107,Putnam,"{""12107"": 59.73, ""12001"": 20.37, ""12019"": 14.2, ""12007"": 5.7}",Putnam|Alachua|Clay|Bradford,12107|12001|12019|12007,False,False,America/New_York,0
32697,0.3794466403162055,0.0316205533596837,0.0333333333333333,0.4,29.92831,-82.42538,Worthington Springs,FL,Florida,True,,156.0,218.0,12125,Union,"{""12125"": 100}",Union,12125,False,False,America/New_York,0
32725,0.1100251889168765,0.1113314504336678,0.1751148080755567,0.6982975799679365,28.88368,-81.25061,Deltona,FL,Florida,True,,51668.0,865.4,12127,Volusia,"{""12127"": 100}",Volusia,12127,False,False,America/New_York,2
32751,0.1249775784753363,0.1692403542343465,0.5482375979112272,0.6590181430096052,28.631,-81.36457,Maitland,FL,Florida,True,,22853.0,1257.1,12095,Orange,"{""12095"": 76.68, ""12117"": 23.32}",Orange|Seminole,12095|12117,False,False,America/New_York,2
32763,0.1219437652811736,0.0629806246509429,0.1833160502362023,0.5812994156067377,28.94291,-81.30593,Orange City,FL,Florida,True,,25667.0,473.8,12127,Volusia,"{""12127"": 100}",Volusia,12127,False,False,America/New_York,0
32766,0.0523588277340957,0.051201423909819,0.498598680047012,0.7741237559498053,28.64761,-81.08124,Oviedo,FL,Florida,True,,15966.0,140.6,12117,Seminole,"{""12117"": 100}",Seminole,12117,False,False,America/New_York,2
32798,0.0142262317834836,0.0492713393476752,0.1414594374235629,0.3735119047619047,28.72647,-81.58648,Zellwood,FL,Florida,True,,2159.0,278.5,12095,Orange,"{""12095"": 100}",Orange,12095,False,False,America/New_York,0
33181,0.1585878539229094,0.333399632042166,0.3264354827318313,0.5275827482447342,25.89717,-80.1531,Miami,FL,Florida,True,,20969.0,2659.3,12086,Miami-Dade,"{""12086"": 100}",Miami-Dade,12086,False,False,America/New_York,1
33184,0.1013314967860422,0.0196465457883865,0.2803344798956232,0.5272293339119115,25.7597,-80.4066,Miami,FL,Florida,True,,19618.0,3061.9,12086,Miami-Dade,"{""12086"": 100}",Miami-Dade,12086,False,False,America/New_York,2
33308,0.0754933116547188,0.0190518062577855,0.4948025819431637,0.4361476043276661,26.18952,-80.10859,Fort Lauderdale,FL,Florida,True,,27261.0,2285.7,12011,Broward,"{""12011"": 100}",Broward,12011,False,False,America/New_York,2
33314,0.1955414256712759,0.1301126150911558,0.2636520193322593,0.5450970110120609,26.06822,-80.22391,Fort Lauderdale,FL,Florida,True,,30121.0,1328.3,12011,Broward,"{""12011"": 100}",Broward,12011,False,False,America/New_York,0
33317,0.1465170884424732,0.2452962760558982,0.3491599437495374,0.68404456590288,26.11268,-80.22607,Fort Lauderdale,FL,Florida,True,,37008.0,1495.1,12011,Broward,"{""12011"": 100}",Broward,12011,False,False,America/New_York,2
33322,0.1048089726518488,0.1978156891833133,0.3123288553848136,0.4913560434750894,26.14997,-80.27429,Fort Lauderdale,FL,Florida,True,,40522.0,2840.0,12011,Broward,"{""12011"": 100}",Broward,12011,False,False,America/New_York,2
33325,0.0746991237939381,0.0670775307296809,0.3645191970766381,0.6152119000841987,26.11032,-80.32261,Fort Lauderdale,FL,Florida,True,,30947.0,1267.3,12011,Broward,"{""12011"": 100}",Broward,12011,False,False,America/New_York,2
33430,0.4177666785586871,0.5752632487484896,0.0752162991906223,0.3767153607791058,26.61415,-80.57952,Belle Glade,FL,Florida,True,,19773.0,31.8,12099,Palm Beach,"{""12099"": 100}",Palm Beach,12099,False,False,America/New_York,1
33434,0.0662756598240469,0.0392951283803573,0.4975893116468196,0.3739216169583436,26.38139,-80.16913,Boca Raton,FL,Florida,True,,21805.0,1218.9,12099,Palm Beach,"{""12099"": 100}",Palm Beach,12099,False,False,America/New_York,2
33467,0.0686421120649866,0.0857337682681852,0.3892019362045426,0.5636374107348537,26.59472,-80.17567,Lake Worth,FL,Florida,True,,56447.0,1164.6,12099,Palm Beach,"{""12099"": 100}",Palm Beach,12099,False,False,America/New_York,2
33496,0.0630454140694568,0.0264980026631158,0.5769230769230769,0.454901509042737,26.40887,-80.16139,Boca Raton,FL,Florida,True,,24546.0,898.3,12099,Palm Beach,"{""12099"": 100}",Palm Beach,12099,False,False,America/New_York,2
33510,0.1077458303489204,0.1822546831676472,0.275531914893617,0.6755576353143036,27.95564,-82.29986,Brandon,FL,Florida,True,,30585.0,1558.3,12057,Hillsborough,"{""12057"": 100}",Hillsborough,12057,False,False,America/New_York,2
33541,0.1717166889696043,0.0745419211549139,0.1547908701193372,0.3634119583104772,28.23029,-82.22073,Zephyrhills,FL,Florida,True,,23913.0,388.5,12101,Pasco,"{""12101"": 100}",Pasco,12101,False,False,America/New_York,0
33572,0.0651736162271008,0.068891069676153,0.4080892055951438,0.6837760768422633,27.7659,-82.39999,Apollo Beach,FL,Florida,True,,25045.0,739.6,12057,Hillsborough,"{""12057"": 100}",Hillsborough,12057,False,False,America/New_York,2
33607,0.2232491271308276,0.2477034120734908,0.3143215122296671,0.4972451790633609,27.96677,-82.51408,Tampa,FL,Florida,True,,24960.0,1038.7,12057,Hillsborough,"{""12057"": 100}",Hillsborough,12057,False,False,America/New_York,0
33609,0.1264041880248664,0.0348995481025752,0.5537405832773924,0.6382105035660255,27.94307,-82.51108,Tampa,FL,Florida,True,,17922.0,1731.3,12057,Hillsborough,"{""12057"": 100}",Hillsborough,12057,False,False,America/New_York,2
33617,0.2331994587745108,0.3645791614847916,0.2826357096141269,0.6211285532456513,28.03893,-82.39327,Tampa,FL,Florida,True,,47880.0,2092.2,12057,Hillsborough,"{""12057"": 100}",Hillsborough,12057,False,False,America/New_York,1
33647,0.0833627543743203,0.1604134978311081,0.5802942240957186,0.7476257973068745,28.13401,-82.36017,Tampa,FL,Florida,True,,74919.0,893.2,12057,Hillsborough,"{""12057"": 100}",Hillsborough,12057,False,False,America/New_York,2
33702,0.1081089652110487,0.1064368031481308,0.3236182984889257,0.5430953499295443,27.84567,-82.63251,Saint Petersburg,FL,Florida,True,,31233.0,1162.4,12103,Pinellas,"{""12103"": 100}",Pinellas,12103,False,False,America/New_York,2
33705,0.2272329093521146,0.5265620126832311,0.3152189484742849,0.6545336366590835,27.73641,-82.64265,Saint Petersburg,FL,Florida,True,,27024.0,1869.2,12103,Pinellas,"{""12103"": 100}",Pinellas,12103,False,False,America/New_York,1
33707,0.1092053307008884,0.0754229418177413,0.3525528378057468,0.4848123883263847,27.74913,-82.72293,Saint Petersburg,FL,Florida,True,,24456.0,1788.1,12103,Pinellas,"{""12103"": 100}",Pinellas,12103,False,False,America/New_York,2
33711,0.172037047307415,0.5090327818938395,0.248451427708113,0.5605413105413105,27.73884,-82.68845,Saint Petersburg,FL,Florida,True,,18347.0,1506.1,12103,Pinellas,"{""12103"": 100}",Pinellas,12103,False,False,America/New_York,1
33073,0.0768678779528689,0.1398326643676861,0.3490537306939308,0.7260110431278913,26.29818,-80.1827,Pompano Beach,FL,Florida,True,,32980.0,1564.0,12011,Broward,"{""12011"": 100}",Broward,12011,False,False,America/New_York,2
33134,0.1048093695489658,0.0182292313423568,0.4959737738311213,0.4964767705720769,25.75338,-80.2712,Miami,FL,Florida,True,,36937.0,2728.0,12086,Miami-Dade,"{""12086"": 100}",Miami-Dade,12086,False,False,America/New_York,2
33136,0.3755708496816106,0.508329126703685,0.1925932473042248,0.6814720812182741,25.78703,-80.20444,Miami,FL,Florida,True,,16611.0,4574.3,12086,Miami-Dade,"{""12086"": 100}",Miami-Dade,12086,False,False,America/New_York,1
33145,0.1204142301786939,0.0297919447790837,0.3473478874408566,0.4736002834868887,25.75322,-80.23461,Miami,FL,Florida,True,,29454.0,4472.0,12086,Miami-Dade,"{""12086"": 100}",Miami-Dade,12086,False,False,America/New_York,2
33156,0.0762937083818567,0.022736766724354,0.6361206065386975,0.6149044585987261,25.66779,-80.29728,Miami,FL,Florida,True,,32708.0,910.4,12086,Miami-Dade,"{""12086"": 100}",Miami-Dade,12086,False,False,America/New_York,2
33158,0.0196320915133714,0.0307620961508733,0.744270205066345,0.6210359408033826,25.63744,-80.30945,Miami,FL,Florida,True,,6029.0,835.8,12086,Miami-Dade,"{""12086"": 100}",Miami-Dade,12086,False,False,America/New_York,2
33811,0.0869311289815355,0.0736105503969856,0.2415224913494809,0.617493925720236,27.97933,-82.01866,Lakeland,FL,Florida,True,,28456.0,407.9,12105,Polk,"{""12105"": 100}",Polk,12105,False,False,America/New_York,2
33841,0.1502357960925218,0.143494257999777,0.1288163265306122,0.3852173913043478,27.7381,-81.7674,Fort Meade,FL,Florida,True,,8268.0,19.0,12105,Polk,"{""12105"": 100}",Polk,12105,False,False,America/New_York,0
33160,0.1182490627216536,0.0489965921999242,0.4415629213835492,0.3757078695567272,25.93234,-80.13583,North Miami Beach,FL,Florida,True,,43225.0,3763.8,12086,Miami-Dade,"{""12086"": 100}",Miami-Dade,12086,False,False,America/New_York,2
33183,0.1333570121034944,0.0224642614023145,0.2792864447221906,0.6559676331759946,25.70047,-80.40578,Miami,FL,Florida,True,,33811.0,2367.5,12086,Miami-Dade,"{""12086"": 100}",Miami-Dade,12086,False,False,America/New_York,2
33306,0.0643405889884763,0.0236875800256081,0.5174799708667153,0.622478386167147,26.16548,-80.11404,Fort Lauderdale,FL,Florida,True,,2700.0,1221.6,12011,Broward,"{""12011"": 100}",Broward,12011,False,False,America/New_York,2
33311,0.3056119807225076,0.8356578549551089,0.117005370116879,0.5644298065047345,26.14412,-80.17319,Fort Lauderdale,FL,Florida,True,,73280.0,2728.2,12011,Broward,"{""12011"": 100}",Broward,12011,False,False,America/New_York,1
33326,0.0684981132075471,0.0479264062735635,0.5454105642784888,0.6863374816004282,26.11033,-80.37403,Fort Lauderdale,FL,Florida,True,,32560.0,1740.0,12011,Broward,"{""12011"": 100}",Broward,12011,False,False,America/New_York,2
33330,0.0584947602413464,0.0863673779522573,0.5002403615037015,0.6732766761095373,26.06034,-80.32333,Fort Lauderdale,FL,Florida,True,,14384.0,501.2,12011,Broward,"{""12011"": 100}",Broward,12011,False,False,America/New_York,2
33351,0.1247333238515147,0.3999832256982303,0.2815294355654461,0.7564742589703588,26.17938,-80.27463,Fort Lauderdale,FL,Florida,True,,34582.0,2407.0,12011,Broward,"{""12011"": 100}",Broward,12011,False,False,America/New_York,1
33406,0.0900567195277231,0.1164763458401305,0.2380296610169491,0.6226186352615172,26.66503,-80.09093,West Palm Beach,FL,Florida,True,,26662.0,1184.5,12099,Palm Beach,"{""12099"": 100}",Palm Beach,12099,False,False,America/New_York,2
33428,0.1038797589369993,0.0666007094423397,0.3994966970745517,0.5929684296842969,26.35054,-80.22792,Boca Raton,FL,Florida,True,,46228.0,1548.9,12099,Palm Beach,"{""12099"": 99.86, ""12011"": 0.14}",Palm Beach|Broward,12099|12011,False,False,America/New_York,2
33432,0.1070051257017329,0.0498852931127056,0.51666468277586,0.3759795057263411,26.34546,-80.0838,Boca Raton,FL,Florida,True,,21817.0,1815.6,12099,Palm Beach,"{""12099"": 100}",Palm Beach,12099,False,False,America/New_York,2
33438,0.0463215258855585,0.106267029972752,0.2092198581560283,0.2916666666666667,26.95443,-80.56524,Canal Point,FL,Florida,True,,439.0,4.3,12085,Martin,"{""12085"": 64.74, ""12099"": 35.26}",Martin|Palm Beach,12085|12099,False,False,America/New_York,0
33460,0.2420256802774219,0.1775703803763853,0.1940372113875812,0.5791942016627585,26.61872,-80.05527,Lake Worth Beach,FL,Florida,True,,36934.0,3013.8,12099,Palm Beach,"{""12099"": 100}",Palm Beach,12099,False,False,America/New_York,0
33849,0.2804232804232804,0.0,0.0298329355608591,0.24609375,28.21613,-82.07414,Kathleen,FL,Florida,True,,736.0,12.7,12105,Polk,"{""12105"": 98.28, ""12101"": 1.72}",Polk|Pasco,12105|12101,False,False,America/New_York,0
33868,0.145829319976883,0.0642330932869795,0.1260993843447669,0.5075025008336113,28.25882,-81.84769,Polk City,FL,Florida,True,,13676.0,28.9,12105,Polk,"{""12105"": 100}",Polk,12105,False,False,America/New_York,0
33870,0.2263849765258216,0.1550439777418776,0.1331151118385161,0.3491146318732526,27.50571,-81.36071,Sebring,FL,Florida,True,,25067.0,101.6,12055,Highlands,"{""12055"": 100}",Highlands,12055,False,False,America/New_York,0
33903,0.1476602350853847,0.0385752747495255,0.1833395711917874,0.3082653423199716,26.68217,-81.90688,North Fort Myers,FL,Florida,True,,23199.0,790.7,12071,Lee,"{""12071"": 100}",Lee,12071,False,False,America/New_York,0
33917,0.1627438471611322,0.0357416220173716,0.1977305649444712,0.3038048213767063,26.75403,-81.84779,North Fort Myers,FL,Florida,True,,31902.0,188.0,12071,Lee,"{""12071"": 73.22, ""12015"": 26.78}",Lee|Charlotte,12071|12015,False,False,America/New_York,0
33948,0.1097560975609756,0.0685083518280574,0.2148766328011611,0.5018541409147095,26.98411,-82.15126,Port Charlotte,FL,Florida,True,,18732.0,557.7,12015,Charlotte,"{""12015"": 100}",Charlotte,12015,False,False,America/New_York,0
33991,0.0810859242003404,0.0354858767098951,0.3085725123277279,0.7147887323943662,26.63074,-82.01065,Cape Coral,FL,Florida,True,,25991.0,783.2,12071,Lee,"{""12071"": 100}",Lee,12071,False,False,America/New_York,2
33761,0.0832273490359668,0.0237445690613317,0.3610936912078264,0.4941392458692275,28.03103,-82.72511,Clearwater,FL,Florida,True,,18399.0,1404.2,12103,Pinellas,"{""12103"": 100}",Pinellas,12103,False,False,America/New_York,2
33765,0.1506577144423129,0.0787438958220293,0.2450946040644709,0.5039128955427016,27.97452,-82.74419,Clearwater,FL,Florida,True,,14364.0,1327.8,12103,Pinellas,"{""12103"": 100}",Pinellas,12103,False,False,America/New_York,0
33767,0.1104401502952227,0.0178475577026301,0.4866190900981266,0.4150537634408602,27.97022,-82.82329,Clearwater Beach,FL,Florida,True,,7409.0,1425.1,12103,Pinellas,"{""12103"": 100}",Pinellas,12103,False,False,America/New_York,2
33776,0.0316956039896564,0.0051572975760701,0.4155215792529514,0.603881782090869,27.84975,-82.82634,Seminole,FL,Florida,True,,12711.0,1449.2,12103,Pinellas,"{""12103"": 100}",Pinellas,12103,False,False,America/New_York,2
33781,0.1736417777417656,0.0702446089475378,0.2080286039330408,0.5682042833607908,27.83861,-82.71512,Pinellas Park,FL,Florida,True,,27357.0,1607.1,12103,Pinellas,"{""12103"": 100}",Pinellas,12103,False,False,America/New_York,0
33853,0.2156743091273646,0.2800240363979741,0.2123463114754098,0.6323744514870795,27.90023,-81.58556,Lake Wales,FL,Florida,True,,12385.0,552.1,12105,Polk,"{""12105"": 100}",Polk,12105,False,False,America/New_York,1
33913,0.0616855997327096,0.0531435070792642,0.4498166941182721,0.5262138429752066,26.51718,-81.69712,Fort Myers,FL,Florida,True,,28172.0,107.7,12071,Lee,"{""12071"": 100}",Lee,12071,False,False,America/New_York,2
33556,0.0451189499589827,0.0583211112069709,0.4767958528758331,0.7069566429666806,28.17029,-82.59264,Odessa,FL,Florida,True,,34045.0,218.0,12057,Hillsborough,"{""12057"": 55.85, ""12101"": 44.15}",Hillsborough|Pasco,12057|12101,False,False,America/New_York,2
33565,0.1591203104786546,0.0178011643528884,0.1587864460204885,0.4859228362877998,28.08858,-82.15595,Plant City,FL,Florida,True,,17716.0,87.3,12057,Hillsborough,"{""12057"": 100}",Hillsborough,12057,False,False,America/New_York,0
33567,0.183026920551543,0.1022550225502255,0.1604769593839274,0.5614898102600141,27.92159,-82.1217,Plant City,FL,Florida,True,,12292.0,114.1,12057,Hillsborough,"{""12057"": 100}",Hillsborough,12057,False,False,America/New_York,0
33584,0.1485312370707488,0.1458317784909321,0.2460428556046086,0.6559540889526543,28.00637,-82.28959,Seffner,FL,Florida,True,,27172.0,546.7,12057,Hillsborough,"{""12057"": 100}",Hillsborough,12057,False,False,America/New_York,2
33604,0.2222617625378104,0.236011513988486,0.210230727955643,0.6408450704225352,28.01686,-82.45519,Tampa,FL,Florida,True,,39411.0,2037.7,12057,Hillsborough,"{""12057"": 100}",Hillsborough,12057,False,False,America/New_York,1
33618,0.0686696859236348,0.0687701082187774,0.4524165902177586,0.6056524035921818,28.07313,-82.49781,Tampa,FL,Florida,True,,27588.0,1262.2,12057,Hillsborough,"{""12057"": 100}",Hillsborough,12057,False,False,America/New_York,2
33637,0.154258963233615,0.2386214753631444,0.3387873829651849,0.6384439359267735,28.04715,-82.36118,Tampa,FL,Florida,True,,17785.0,876.5,12057,Hillsborough,"{""12057"": 100}",Hillsborough,12057,False,False,America/New_York,2
33701,0.1715653229068356,0.1571083418107833,0.484428261543229,0.5441365979381443,27.7705,-82.63566,Saint Petersburg,FL,Florida,True,,18485.0,2677.6,12103,Pinellas,"{""12103"": 100}",Pinellas,12103,False,False,America/New_York,2
33704,0.0712593294633337,0.0313861735955717,0.5589584258026336,0.629009009009009,27.79666,-82.63292,Saint Petersburg,FL,Florida,True,,16300.0,1839.2,12103,Pinellas,"{""12103"": 100}",Pinellas,12103,False,False,America/New_York,2
33070,0.0434347477982385,0.0056508183943881,0.3790139064475347,0.5145700071073206,25.00873,-80.52501,Tavernier,FL,Florida,True,,5614.0,512.3,12087,Monroe,"{""12087"": 100}",Monroe,12087,False,False,America/New_York,2
33126,0.2154018068524025,0.0191560034726154,0.2373277039612567,0.5518610421836229,25.78061,-80.30054,Miami,FL,Florida,True,,47038.0,3371.2,12086,Miami-Dade,"{""12086"": 100}",Miami-Dade,12086,False,False,America/New_York,0
33129,0.1294545454545454,0.0269090909090909,0.6992205840924031,0.5705277132426153,25.7527,-80.20046,Miami,FL,Florida,True,,14717.0,4110.5,12086,Miami-Dade,"{""12086"": 100}",Miami-Dade,12086,False,False,America/New_York,2
33130,0.2389150065951905,0.0419679187544136,0.3577552945211352,0.500805152979066,25.76805,-80.20291,Miami,FL,Florida,True,,32363.0,11424.4,12086,Miami-Dade,"{""12086"": 100}",Miami-Dade,12086,False,False,America/New_York,0
33131,0.0823726795475456,0.023542782919305,0.7637006482027107,0.5695868737181365,25.76417,-80.18459,Miami,FL,Florida,True,,23289.0,17942.7,12086,Miami-Dade,"{""12086"": 100}",Miami-Dade,12086,False,False,America/New_York,2
33137,0.1565070472633498,0.2141581354824657,0.4897855816309303,0.584786641929499,25.81538,-80.17798,Miami,FL,Florida,True,,27300.0,5213.7,12086,Miami-Dade,"{""12086"": 100}",Miami-Dade,12086,False,False,America/New_York,2
33155,0.1273574727029476,0.0219018812879421,0.3569937369519833,0.6130018743217914,25.73672,-80.31117,Miami,FL,Florida,True,,43133.0,2259.1,12086,Miami-Dade,"{""12086"": 100}",Miami-Dade,12086,False,False,America/New_York,2
33165,0.1403445671330432,0.0165526136648633,0.2582498491249245,0.5580016173959924,25.73437,-80.35862,Miami,FL,Florida,True,,50471.0,2596.3,12086,Miami-Dade,"{""12086"": 100}",Miami-Dade,12086,False,False,America/New_York,2
33708,0.0938356164383561,0.0120002487098178,0.3868025368773605,0.4824661556026749,27.81192,-82.7933,Saint Petersburg,FL,Florida,True,,15306.0,1735.0,12103,Pinellas,"{""12103"": 100}",Pinellas,12103,False,False,America/New_York,2
33760,0.1891299193930773,0.175703737886479,0.2128546896720909,0.5341352405721717,27.90535,-82.71389,Clearwater,FL,Florida,True,,19486.0,1335.4,12103,Pinellas,"{""12103"": 100}",Pinellas,12103,False,False,America/New_York,0
33763,0.1129634364612631,0.0358844399391789,0.2794145243009945,0.401301846805934,28.00298,-82.74347,Clearwater,FL,Florida,True,,21278.0,2449.8,12103,Pinellas,"{""12103"": 100}",Pinellas,12103,False,False,America/New_York,0
33030,0.285587722557229,0.1610911254001076,0.1251196172248803,0.6338582677165354,25.4848,-80.50857,Homestead,FL,Florida,True,,35957.0,786.8,12086,Miami-Dade,"{""12086"": 100}",Miami-Dade,12086,False,False,America/New_York,1
33035,0.185118306351183,0.2400519834148152,0.2663393679042651,0.8011126564673157,25.4216,-80.4036,Homestead,FL,Florida,True,,18756.0,245.7,12086,Miami-Dade,"{""12086"": 100}",Miami-Dade,12086,False,False,America/New_York,2
33064,0.1842298574242879,0.2979133016820844,0.2488963632541517,0.5728800312622118,26.27806,-80.11524,Pompano Beach,FL,Florida,True,,62000.0,2345.2,12011,Broward,"{""12011"": 100}",Broward,12011,False,False,America/New_York,1
33071,0.0904443370552178,0.1738744226181412,0.4319762414946806,0.7254362897442027,26.24395,-80.26627,Coral Springs,FL,Florida,True,,40207.0,2071.7,12011,Broward,"{""12011"": 100}",Broward,12011,False,False,America/New_York,2
33132,0.1286978709831751,0.1153151852119286,0.5889435306087841,0.5833333333333334,25.77719,-80.17395,Miami,FL,Florida,True,,18244.0,4661.2,12086,Miami-Dade,"{""12086"": 100}",Miami-Dade,12086,False,False,America/New_York,2
33139,0.1545297648180108,0.0506252060770537,0.5120004987220248,0.486010509870757,25.78523,-80.15085,Miami Beach,FL,Florida,True,,34406.0,4774.3,12086,Miami-Dade,"{""12086"": 100}",Miami-Dade,12086,False,False,America/New_York,2
33141,0.1441386804134131,0.0536612351639509,0.3979703962251955,0.5107122177185871,25.85116,-80.14147,Miami Beach,FL,Florida,True,,36016.0,6019.6,12086,Miami-Dade,"{""12086"": 100}",Miami-Dade,12086,False,False,America/New_York,2
33150,0.2990899485326698,0.7370497774180493,0.1454639979204575,0.629021667760998,25.85196,-80.20702,Miami,FL,Florida,True,,31936.0,3550.8,12086,Miami-Dade,"{""12086"": 100}",Miami-Dade,12086,False,False,America/New_York,1
33154,0.1158944922782561,0.0246685800191335,0.6022301164397079,0.4396503102086858,25.88609,-80.13332,Miami Beach,FL,Florida,True,,14435.0,2875.0,12086,Miami-Dade,"{""12086"": 100}",Miami-Dade,12086,False,False,America/New_York,2
33166,0.1249110953058321,0.0469070894602809,0.3376157082748948,0.6040717921242968,25.8253,-80.31049,Miami,FL,Florida,True,,26925.0,1310.9,12086,Miami-Dade,"{""12086"": 100}",Miami-Dade,12086,False,False,America/New_York,2
33167,0.2105723447672723,0.6657273345641823,0.1445810392940644,0.6932123655913979,25.8848,-80.23631,Miami,FL,Florida,True,,23209.0,2122.9,12086,Miami-Dade,"{""12086"": 100}",Miami-Dade,12086,False,False,America/New_York,1
33176,0.0911711573202137,0.1601132190942472,0.4052347516243974,0.6103469158231681,25.65876,-80.35919,Miami,FL,Florida,True,,52190.0,1671.5,12086,Miami-Dade,"{""12086"": 100}",Miami-Dade,12086,False,False,America/New_York,2
33177,0.1274028593356774,0.1115321767548586,0.2110740527120896,0.7555133079847909,25.59703,-80.40458,Miami,FL,Florida,True,,58097.0,1786.8,12086,Miami-Dade,"{""12086"": 100}",Miami-Dade,12086,False,False,America/New_York,2
33178,0.1301606163989726,0.0203041795962149,0.5335543410088702,0.6761892281483423,25.83578,-80.4213,Miami,FL,Florida,True,,65515.0,414.1,12086,Miami-Dade,"{""12086"": 100}",Miami-Dade,12086,False,False,America/New_York,2
33180,0.080940840169028,0.0255849079868068,0.5414687757585273,0.4632547319445913,25.96145,-80.1415,Miami,FL,Florida,True,,32745.0,3876.0,12086,Miami-Dade,"{""12086"": 100}",Miami-Dade,12086,False,False,America/New_York,2
33919,0.0810524923971968,0.0226178700956149,0.3769499137827324,0.4894955949269048,26.55607,-81.90388,Fort Myers,FL,Florida,True,,30300.0,1337.3,12071,Lee,"{""12071"": 100}",Lee,12071,False,False,America/New_York,2
33953,0.0985017059783414,0.0232903130099391,0.2390942390942391,0.3817365269461077,26.99991,-82.21222,Port Charlotte,FL,Florida,True,,7018.0,167.8,12015,Charlotte,"{""12015"": 100}",Charlotte,12015,False,False,America/New_York,0
33001,0.2054380664652568,0.0,0.2075471698113207,0.25,24.82041,-80.80992,Long Key,FL,Florida,True,,254.0,50.2,12087,Monroe,"{""12087"": 100}",Monroe,12087,False,False,America/New_York,0
33014,0.2029047823802016,0.031056196927774,0.2308443778696799,0.6136541165442899,25.90332,-80.30173,Hialeah,FL,Florida,True,,40742.0,2427.4,12086,Miami-Dade,"{""12086"": 100}",Miami-Dade,12086,False,False,America/New_York,0
33015,0.1459060402684563,0.0902799482073491,0.2359661217254284,0.7356023370119633,25.94116,-80.31761,Hialeah,FL,Florida,True,,68430.0,4488.8,12086,Miami-Dade,"{""12086"": 100}",Miami-Dade,12086,False,False,America/New_York,2
33016,0.1614579294300116,0.0265377176015473,0.2453098827470686,0.6415853658536586,25.89361,-80.33186,Hialeah,FL,Florida,True,,45285.0,4178.5,12086,Miami-Dade,"{""12086"": 100}",Miami-Dade,12086,False,False,America/New_York,2
33026,0.0683478151366326,0.1314791006867141,0.3868673647469459,0.6518752725686873,26.02575,-80.29625,Hollywood,FL,Florida,True,,30400.0,2548.8,12011,Broward,"{""12011"": 100}",Broward,12011,False,False,America/New_York,2
33055,0.2044063344155039,0.2988283638676222,0.1309806939003917,0.6225134008338297,25.94812,-80.27809,Opa Locka,FL,Florida,True,,37226.0,2393.6,12086,Miami-Dade,"{""12086"": 100}",Miami-Dade,12086,False,False,America/New_York,1
33056,0.2270018933066043,0.8038493492107449,0.1382785467128027,0.6825422626788037,25.94922,-80.24562,Miami Gardens,FL,Florida,True,,37318.0,2351.2,12086,Miami-Dade,"{""12086"": 100}",Miami-Dade,12086,False,False,America/New_York,1
33716,0.1393040374749052,0.1269597631838614,0.4577267837934743,0.5582232893157263,27.8774,-82.65119,Saint Petersburg,FL,Florida,True,,18995.0,1023.9,12103,Pinellas,"{""12103"": 100}",Pinellas,12103,False,False,America/New_York,2
33777,0.0845473940871685,0.0258538332935275,0.3327336722721939,0.5666427803654605,27.85257,-82.76026,Seminole,FL,Florida,True,,18276.0,1282.5,12103,Pinellas,"{""12103"": 100}",Pinellas,12103,False,False,America/New_York,2
33778,0.1023921460176991,0.1117816486078727,0.1959715014513149,0.499679555650502,27.88266,-82.79843,Largo,FL,Florida,True,,16054.0,1647.4,12103,Pinellas,"{""12103"": 100}",Pinellas,12103,False,False,America/New_York,0
33823,0.1861148597990703,0.1039119440725866,0.1916191139957311,0.520501138952164,28.09041,-81.81267,Auburndale,FL,Florida,True,,39146.0,433.0,12105,Polk,"{""12105"": 100}",Polk,12105,False,False,America/New_York,0
33852,0.2209174662275048,0.0452154130527513,0.1408891295193406,0.3502832861189802,27.25904,-81.37844,Lake Placid,FL,Florida,True,,21630.0,28.5,12055,Highlands,"{""12055"": 100}",Highlands,12055,False,False,America/New_York,0
33901,0.1934306569343065,0.2216345253697809,0.2503488519599137,0.5172413793103449,26.62304,-81.88228,Fort Myers,FL,Florida,True,,24401.0,1509.3,12071,Lee,"{""12071"": 100}",Lee,12071,False,False,America/New_York,0
33904,0.1055523237024109,0.0256707199382358,0.2431324470326807,0.4839242350655658,26.57601,-81.94536,Cape Coral,FL,Florida,True,,32925.0,1306.3,12071,Lee,"{""12071"": 100}",Lee,12071,False,False,America/New_York,0
33916,0.2538816108685104,0.3937045810414742,0.2034400201612903,0.4075049374588545,26.63998,-81.84104,Fort Myers,FL,Florida,True,,27642.0,1038.1,12071,Lee,"{""12071"": 100}",Lee,12071,False,False,America/New_York,1
33950,0.0988049878766886,0.0165672346452637,0.3507977151861335,0.3631226454583507,26.91166,-82.04009,Punta Gorda,FL,Florida,True,,24492.0,529.8,12015,Charlotte,"{""12015"": 100}",Charlotte,12015,False,False,America/New_York,0
33960,0.1234939759036144,0.0,0.1298245614035087,0.2783882783882784,27.07709,-81.41682,Venus,FL,Florida,True,,618.0,1.0,12055,Highlands,"{""12055"": 72.64, ""12043"": 27.36}",Highlands|Glades,12055|12043,False,False,America/New_York,0
33944,0.0,0.0,0.0,1.0,26.97163,-81.36924,Palmdale,FL,Florida,True,,232.0,1.9,12043,Glades,"{""12043"": 100}",Glades,12043,False,False,America/New_York,2
33946,0.057509505703422,0.0,0.4032802701398938,0.3987730061349693,26.853,-82.26958,Placida,FL,Florida,True,,2745.0,98.5,12015,Charlotte,"{""12015"": 100}",Charlotte,12015,False,False,America/New_York,2
33971,0.1787781812951709,0.2411152070434129,0.1343449080828713,0.770011273957159,26.63856,-81.69948,Lehigh Acres,FL,Florida,True,,28377.0,645.4,12071,Lee,"{""12071"": 100}",Lee,12071,False,False,America/New_York,1
33981,0.0800988002822865,0.0267379679144385,0.2166872937293729,0.542755645775184,26.87544,-82.21047,Port Charlotte,FL,Florida,True,,14468.0,122.9,12015,Charlotte,"{""12015"": 100}",Charlotte,12015,False,False,America/New_York,2
33990,0.1388630821042852,0.0698848717430822,0.2014518373641253,0.6882309941520468,26.62875,-81.94602,Cape Coral,FL,Florida,True,,35428.0,1463.4,12071,Lee,"{""12071"": 100}",Lee,12071,False,False,America/New_York,2
33993,0.1137636415852958,0.0709191901092994,0.2039518273291277,0.6739985433357611,26.67194,-82.04522,Cape Coral,FL,Florida,True,,33045.0,292.1,12071,Lee,"{""12071"": 100}",Lee,12071,False,False,America/New_York,2
33173,0.1067549426409568,0.0069509504669225,0.3928296224195968,0.6647968258311671,25.70163,-80.35765,Miami,FL,Florida,True,,32042.0,2259.6,12086,Miami-Dade,"{""12086"": 100}",Miami-Dade,12086,False,False,America/New_York,2
33174,0.1418338562961554,0.044472865738453,0.2819091237796794,0.5583259127337489,25.76199,-80.36029,Miami,FL,Florida,True,,35056.0,4420.0,12086,Miami-Dade,"{""12086"": 100}",Miami-Dade,12086,False,False,America/New_York,2
33187,0.0804609580900211,0.0865305280528052,0.3163369963369963,0.6866869037294016,25.54889,-80.57638,Miami,FL,Florida,True,,18575.0,63.5,12086,Miami-Dade,"{""12086"": 100}",Miami-Dade,12086,False,False,America/New_York,2
33193,0.1357330710084118,0.0200804016080321,0.3273976972825614,0.7451793721973095,25.70175,-80.46672,Miami,FL,Florida,True,,46519.0,2375.3,12086,Miami-Dade,"{""12086"": 100}",Miami-Dade,12086,False,False,America/New_York,2
33031,0.0579730488489612,0.0536215609208309,0.2189563365282215,0.6006451612903225,25.52709,-80.50312,Homestead,FL,Florida,True,,7795.0,135.5,12086,Miami-Dade,"{""12086"": 100}",Miami-Dade,12086,False,False,America/New_York,2
33032,0.1965988302219373,0.2782487284332303,0.2214111129216229,0.8067684140676842,25.52963,-80.39234,Homestead,FL,Florida,True,,62021.0,1312.8,12086,Miami-Dade,"{""12086"": 100}",Miami-Dade,12086,False,False,America/New_York,1
33043,0.1099917763157894,0.0200689235759172,0.3108312342569269,0.4733025708635465,24.70563,-81.3587,Big Pine Key,FL,Florida,True,,4632.0,107.5,12087,Monroe,"{""12087"": 100}",Monroe,12087,False,False,America/New_York,2
33146,0.0791128484024473,0.042554483093547,0.732313095835424,0.5310823603660461,25.72059,-80.27274,Miami,FL,Florida,True,,18861.0,2321.9,12086,Miami-Dade,"{""12086"": 100}",Miami-Dade,12086,False,False,America/New_York,2
33147,0.2876931161324225,0.6079563280416641,0.1050257322574496,0.5458333333333333,25.85104,-80.23861,Miami,FL,Florida,True,,47203.0,2526.1,12086,Miami-Dade,"{""12086"": 100}",Miami-Dade,12086,False,False,America/New_York,1
33149,0.0489067449586649,0.0004635710422622,0.7311954727658571,0.5076273937033431,25.72479,-80.16118,Key Biscayne,FL,Florida,True,,14628.0,1199.5,12086,Miami-Dade,"{""12086"": 100}",Miami-Dade,12086,False,False,America/New_York,2
33161,0.2311909332545776,0.6272047033671834,0.1936968646775329,0.7043778440294994,25.89357,-80.18285,Miami,FL,Florida,True,,54128.0,3811.8,12086,Miami-Dade,"{""12086"": 100}",Miami-Dade,12086,False,False,America/New_York,1
33172,0.1268741192505833,0.0148768336562413,0.3060107600024735,0.6139081183134046,25.78655,-80.3623,Miami,FL,Florida,True,,39465.0,2381.2,12086,Miami-Dade,"{""12086"": 100}",Miami-Dade,12086,False,False,America/New_York,2
33175,0.1240816940044717,0.0110782034940391,0.2700670344076978,0.6031025025711347,25.73435,-80.40621,Miami,FL,Florida,True,,49611.0,2424.5,12086,Miami-Dade,"{""12086"": 100}",Miami-Dade,12086,False,False,America/New_York,2
33190,0.1339918002236302,0.1819533040193224,0.3039730134932534,0.7924620655898189,25.55734,-80.34897,Miami,FL,Florida,True,,17280.0,3267.2,12086,Miami-Dade,"{""12086"": 100}",Miami-Dade,12086,False,False,America/New_York,2
33315,0.1331926965883465,0.0665893775813346,0.3581557121198608,0.6158175355450237,26.08703,-80.15297,Fort Lauderdale,FL,Florida,True,,13211.0,964.9,12011,Broward,"{""12011"": 100}",Broward,12011,False,False,America/New_York,2
33405,0.1931232370391985,0.0621819415499442,0.2792264088029343,0.5317385125532923,26.66774,-80.0584,West Palm Beach,FL,Florida,True,,19703.0,1686.4,12099,Palm Beach,"{""12099"": 100}",Palm Beach,12099,False,False,America/New_York,0
33409,0.2035608491730437,0.3757376851740335,0.2815151657212507,0.6402388797364086,26.7161,-80.0965,West Palm Beach,FL,Florida,True,,32921.0,2033.1,12099,Palm Beach,"{""12099"": 100}",Palm Beach,12099,False,False,America/New_York,1
33413,0.1007743045597935,0.2653971521701835,0.2590857836759476,0.7120434651373377,26.66397,-80.1553,West Palm Beach,FL,Florida,True,,17914.0,959.6,12099,Palm Beach,"{""12099"": 100}",Palm Beach,12099,False,False,America/New_York,2
33426,0.0888701517706576,0.1905639822341406,0.2698890561409377,0.5870301388418557,26.53359,-80.08295,Boynton Beach,FL,Florida,True,,24424.0,1534.7,12099,Palm Beach,"{""12099"": 100}",Palm Beach,12099,False,False,America/New_York,2
33469,0.0633887845452106,0.0071696596086839,0.5012656091798853,0.4504457262716308,26.98275,-80.1092,Jupiter,FL,Florida,True,,14567.0,520.0,12085,Martin,"{""12085"": 69.2, ""12099"": 30.8}",Martin|Palm Beach,12085|12099,False,False,America/New_York,2
33471,0.2062732589048378,0.2387124963588698,0.1134469696969697,0.3358959195742164,26.9105,-81.19754,Moore Haven,FL,Florida,True,,6679.0,7.8,12043,Glades,"{""12043"": 100}",Glades,12043,False,False,America/New_York,0
33484,0.0844619361808851,0.0701547587360736,0.3742675266641372,0.3327222731439047,26.45432,-80.13434,Delray Beach,FL,Florida,True,,25905.0,1660.8,12099,Palm Beach,"{""12099"": 100}",Palm Beach,12099,False,False,America/New_York,0
33004,0.1894286971277732,0.2813704763089168,0.2713349713349713,0.4205462445685909,26.05939,-80.13637,Dania,FL,Florida,True,,16691.0,953.9,12011,Broward,"{""12011"": 100}",Broward,12011,False,False,America/New_York,0
33010,0.2190663040085611,0.0354727489722848,0.1293378110737966,0.4787280701754386,25.83309,-80.27902,Hialeah,FL,Florida,True,,42132.0,3764.4,12086,Miami-Dade,"{""12086"": 100}",Miami-Dade,12086,False,False,America/New_York,0
33021,0.096134665879623,0.1700206243367173,0.3179160021265284,0.6008678635242066,26.02277,-80.18742,Hollywood,FL,Florida,True,,49064.0,2144.2,12011,Broward,"{""12011"": 100}",Broward,12011,False,False,America/New_York,2
33023,0.1519823191235492,0.5261784705230287,0.1458239738615478,0.7604242867593269,25.98812,-80.21263,Hollywood,FL,Florida,True,,70914.0,3127.3,12011,Broward,"{""12011"": 100}",Broward,12011,False,False,America/New_York,1
33025,0.119363650089907,0.5299340850901564,0.2387296460772439,0.5170936509296546,25.98737,-80.28134,Hollywood,FL,Florida,True,,74512.0,2726.7,12011,Broward,"{""12011"": 100}",Broward,12011,False,False,America/New_York,1
33857,0.3193100546907867,0.0,0.0242800677583286,0.2958860759493671,27.35647,-81.16517,Lorida,FL,Florida,True,,935.0,2.4,12055,Highlands,"{""12055"": 100}",Highlands,12055,False,False,America/New_York,0
33947,0.0803649956024626,0.0061565523306948,0.2505951635133442,0.4442247952555775,26.89015,-82.27184,Rotonda West,FL,Florida,True,,10490.0,304.6,12015,Charlotte,"{""12015"": 100}",Charlotte,12015,False,False,America/New_York,0
33066,0.0865045701654818,0.1557425978987583,0.3411373603055594,0.4180121463486891,26.25347,-80.17753,Pompano Beach,FL,Florida,True,,16673.0,2121.3,12011,Broward,"{""12011"": 100}",Broward,12011,False,False,America/New_York,2
33168,0.1634398252693147,0.687604873422339,0.1273360785555907,0.6512735556015739,25.89318,-80.2093,Miami,FL,Florida,True,,22556.0,2421.5,12086,Miami-Dade,"{""12086"": 100}",Miami-Dade,12086,False,False,America/New_York,1
33313,0.2054569996143463,0.7848095222940072,0.1561070220807638,0.6787643880667137,26.15069,-80.22634,Fort Lauderdale,FL,Florida,True,,64228.0,3961.1,12011,Broward,"{""12011"": 100}",Broward,12011,False,False,America/New_York,1
33437,0.0579134324430995,0.1135720276787586,0.4347878063359235,0.4137952637514096,26.51164,-80.14917,Boynton Beach,FL,Florida,True,,37862.0,1359.5,12099,Palm Beach,"{""12099"": 100}",Palm Beach,12099,False,False,America/New_York,2
33185,0.0748162352189197,0.0147007238751235,0.4138637845895835,0.7722886360362955,25.73035,-80.45448,Miami,FL,Florida,True,,29124.0,1631.2,12086,Miami-Dade,"{""12086"": 100}",Miami-Dade,12086,False,False,America/New_York,2
33415,0.1951580835055163,0.2013477245081191,0.175669286685184,0.5679553170518016,26.66002,-80.12742,West Palm Beach,FL,Florida,True,,53058.0,2802.7,12099,Palm Beach,"{""12099"": 100}",Palm Beach,12099,False,False,America/New_York,0
33540,0.2037275817606376,0.0196486361534905,0.1198413864003524,0.343241330502477,28.21936,-82.14866,Zephyrhills,FL,Florida,True,,11098.0,118.8,12101,Pasco,"{""12101"": 91.67, ""12057"": 8.33}",Pasco|Hillsborough,12101|12057,False,False,America/New_York,0
33619,0.2152246367151046,0.3905517310186571,0.1629046967624259,0.5962370962370962,27.93536,-82.37841,Tampa,FL,Florida,True,,40302.0,566.5,12057,Hillsborough,"{""12057"": 100}",Hillsborough,12057,False,False,America/New_York,1
33755,0.2376372071970125,0.22956116621581,0.2014000213743721,0.6074144486692015,27.9793,-82.78007,Clearwater,FL,Florida,True,,28057.0,1980.8,12103,Pinellas,"{""12103"": 100}",Pinellas,12103,False,False,America/New_York,1
33786,0.0869009584664536,0.0242811501597444,0.5919881305637982,0.4210526315789473,27.92385,-82.83635,Belleair Beach,FL,Florida,True,,1564.0,1126.3,12103,Pinellas,"{""12103"": 100}",Pinellas,12103,False,False,America/New_York,2
33954,0.0790335001925298,0.0911756360541,0.219927536231884,0.5874035989717223,27.02506,-82.12167,Port Charlotte,FL,Florida,True,,11604.0,520.4,12015,Charlotte,"{""12015"": 100}",Charlotte,12015,False,False,America/New_York,2
33182,0.0562082970699158,0.0753898958270608,0.2931894366772954,0.6531614487415592,25.78252,-80.40182,Miami,FL,Florida,True,,12685.0,1407.2,12086,Miami-Dade,"{""12086"": 100}",Miami-Dade,12086,False,False,America/New_York,2
33039,0.2142857142857142,0.1071428571428571,0.2192307692307692,0.57,25.49796,-80.39818,Homestead,FL,Florida,True,,0.0,0.0,12086,Miami-Dade,"{""12086"": 100}",Miami-Dade,12086,False,False,America/New_York,0
33051,0.0074906367041198,0.046816479400749,0.4363295880149813,0.4096916299559471,24.72328,-81.02155,Key Colony Beach,FL,Florida,True,,525.0,462.1,12087,Monroe,"{""12087"": 100}",Monroe,12087,False,False,America/New_York,2
33449,0.0431783134485837,0.0827043259475691,0.5820601281419419,0.6601433296582139,26.59272,-80.2339,Lake Worth,FL,Florida,True,,9131.0,216.4,12099,Palm Beach,"{""12099"": 100}",Palm Beach,12099,False,False,America/New_York,2
33472,0.0609676282535367,0.106900878293601,0.4382774515375386,0.5793179621703713,26.53974,-80.18903,Boynton Beach,FL,Florida,True,,18689.0,509.1,12099,Palm Beach,"{""12099"": 100}",Palm Beach,12099,False,False,America/New_York,2
33473,0.0187551187551187,0.0818181818181818,0.5932223685786133,0.6423336265024919,26.50328,-80.19225,Boynton Beach,FL,Florida,True,,11455.0,621.6,12099,Palm Beach,"{""12099"": 100}",Palm Beach,12099,False,False,America/New_York,2
33503,0.0987654320987654,0.0,0.0,0.3269230769230769,27.76375,-82.27425,Balm,FL,Florida,True,,196.0,124.2,12057,Hillsborough,"{""12057"": 100}",Hillsborough,12057,False,False,America/New_York,0
33542,0.1824787307426994,0.027746293693612,0.1218450314761428,0.3192302042015572,28.23562,-82.17708,Zephyrhills,FL,Florida,True,,24306.0,899.6,12101,Pasco,"{""12101"": 100}",Pasco,12101,False,False,America/New_York,0
33545,0.0659379947903365,0.1877807268272764,0.35330595151808,0.8137580181375802,28.26578,-82.28832,Wesley Chapel,FL,Florida,True,,27536.0,399.8,12101,Pasco,"{""12101"": 100}",Pasco,12101,False,False,America/New_York,2
33548,0.0522016062032677,0.0566325117695929,0.5116789778398882,0.6947278911564626,28.13788,-82.48184,Lutz,FL,Florida,True,,8678.0,440.0,12057,Hillsborough,"{""12057"": 96.46, ""12101"": 3.54}",Hillsborough|Pasco,12057|12101,False,False,America/New_York,2
33558,0.0463617205900582,0.045199604091059,0.5125994292306758,0.7143765903307888,28.15871,-82.51597,Lutz,FL,Florida,True,,30912.0,658.4,12057,Hillsborough,"{""12057"": 65.3, ""12101"": 34.7}",Hillsborough|Pasco,12057|12101,False,False,America/New_York,2
33559,0.1128160323267624,0.1333297244627294,0.3894677781340173,0.7188665175242357,28.15788,-82.41007,Lutz,FL,Florida,True,,19147.0,618.8,12057,Hillsborough,"{""12057"": 58.49, ""12101"": 41.51}",Hillsborough|Pasco,12057|12101,False,False,America/New_York,2
33563,0.1810738014006105,0.1768986551564227,0.1611799914493373,0.5590685346459674,28.01694,-82.12544,Plant City,FL,Florida,True,,26313.0,673.3,12057,Hillsborough,"{""12057"": 100}",Hillsborough,12057,False,False,America/New_York,0
33578,0.1196793281160526,0.1985481842777121,0.3265422424846844,0.7590273997459627,27.86187,-82.34775,Riverview,FL,Florida,True,,58474.0,1108.1,12057,Hillsborough,"{""12057"": 100}",Hillsborough,12057,False,False,America/New_York,2
33579,0.0557742232643832,0.191001249826413,0.3305673728992039,0.8052490999883869,27.79585,-82.28376,Riverview,FL,Florida,True,,45373.0,811.1,12057,Hillsborough,"{""12057"": 100}",Hillsborough,12057,False,False,America/New_York,2
33596,0.0289381716040108,0.0814790788193318,0.4477413219210651,0.7347990381312264,27.88765,-82.23591,Valrico,FL,Florida,True,,28152.0,956.5,12057,Hillsborough,"{""12057"": 100}",Hillsborough,12057,False,False,America/New_York,2
33812,0.0494819854646667,0.0772426527158024,0.2930860033726812,0.6621004566210046,27.97262,-81.89304,Lakeland,FL,Florida,True,,14836.0,592.2,12105,Polk,"{""12105"": 100}",Polk,12105,False,False,America/New_York,2
33854,0.282312925170068,0.0918367346938775,0.2393822393822393,0.1684210526315789,27.85608,-81.41033,Lakeshore,FL,Florida,True,,481.0,1180.8,12105,Polk,"{""12105"": 100}",Polk,12105,False,False,America/New_York,0
33859,0.1472332976757755,0.1639002267573696,0.1430813497253465,0.4000645786244753,27.88428,-81.63106,Lake Wales,FL,Florida,True,,10827.0,92.0,12105,Polk,"{""12105"": 100}",Polk,12105,False,False,America/New_York,0
33867,0.1498470948012232,0.0,0.308868501529052,0.1506024096385542,27.78249,-81.20136,River Ranch,FL,Florida,True,,64.0,5.5,12105,Polk,"{""12105"": 99.85, ""12097"": 0.15}",Polk|Osceola,12105|12097,False,False,America/New_York,0
33875,0.0588030316229636,0.033674709251866,0.2773386034255599,0.4333839918946301,27.41813,-81.49198,Sebring,FL,Florida,True,,11429.0,82.6,12055,Highlands,"{""12055"": 100}",Highlands,12055,False,False,America/New_York,0
33876,0.0842904019688269,0.0292553191489361,0.1351214574898785,0.4490390215492137,27.4269,-81.35086,Sebring,FL,Florida,True,,7378.0,90.8,12055,Highlands,"{""12055"": 100}",Highlands,12055,False,False,America/New_York,0
33896,0.1199965493443754,0.1152394027801613,0.2629575042986981,0.6884398496240601,28.24663,-81.57526,Davenport,FL,Florida,True,,23074.0,441.1,12097,Osceola,"{""12097"": 63.44, ""12105"": 36.56}",Osceola|Polk,12097|12105,False,False,America/New_York,2
33897,0.1062546767023196,0.0819268635724331,0.1824753284304481,0.6146620379824382,28.28088,-81.69533,Davenport,FL,Florida,True,,29206.0,269.8,12105,Polk,"{""12105"": 99.02, ""12097"": 0.98}",Polk|Osceola,12105|12097,False,False,America/New_York,2
33898,0.1949087472683243,0.1064319886598547,0.14336690191103,0.3870771723718857,27.83946,-81.34943,Lake Wales,FL,Florida,True,,18426.0,24.0,12105,Polk,"{""12105"": 87.12, ""12097"": 12.88}",Polk|Osceola,12105|12097,False,False,America/New_York,0
33966,0.0345136264173463,0.0323894684550422,0.4364035087719298,0.5236562600579338,26.58234,-81.83206,Fort Myers,FL,Florida,True,,11901.0,524.8,12071,Lee,"{""12071"": 100}",Lee,12071,False,False,America/New_York,2
33967,0.1626119848695998,0.0385610251104301,0.2666102923411452,0.6907048673286668,26.47226,-81.81231,Fort Myers,FL,Florida,True,,27337.0,1381.0,12071,Lee,"{""12071"": 100}",Lee,12071,False,False,America/New_York,2
33973,0.3218269960866772,0.3222422935726356,0.1363051864552079,0.5841995841995842,26.6014,-81.73012,Lehigh Acres,FL,Florida,True,,15020.0,1526.6,12071,Lee,"{""12071"": 100}",Lee,12071,False,False,America/New_York,1
33974,0.1665819926615862,0.1541927127330067,0.1762637362637362,0.768251841929002,26.56205,-81.60271,Lehigh Acres,FL,Florida,True,,19330.0,333.3,12071,Lee,"{""12071"": 100}",Lee,12071,False,False,America/New_York,2
33976,0.1460006601386291,0.2213757193751712,0.1381748071979434,0.7522068095838588,26.59128,-81.68543,Lehigh Acres,FL,Florida,True,,18493.0,769.5,12071,Lee,"{""12071"": 100}",Lee,12071,False,False,America/New_York,2
33076,0.0460804677282867,0.0891765367987516,0.5873831966376953,0.7644480684945469,26.31788,-80.27431,Pompano Beach,FL,Florida,True,,44263.0,1578.4,12011,Broward,"{""12011"": 100}",Broward,12011,False,False,America/New_York,2
33170,0.2178946616165225,0.3074144890588485,0.1997464877997253,0.673697270471464,25.55827,-80.45313,Miami,FL,Florida,True,,14763.0,460.6,12086,Miami-Dade,"{""12086"": 100}",Miami-Dade,12086,False,False,America/New_York,1
33316,0.1269008914525432,0.0843262119967132,0.5035477767265847,0.4916666666666666,26.09913,-80.12398,Fort Lauderdale,FL,Florida,True,,12039.0,1140.7,12011,Broward,"{""12011"": 100}",Broward,12011,False,False,America/New_York,2
33470,0.0977719143946056,0.0985466925357835,0.2448477062255767,0.7064396539887409,26.7832,-80.38063,Loxahatchee,FL,Florida,True,,33232.0,62.6,12099,Palm Beach,"{""12099"": 100}",Palm Beach,12099,False,False,America/New_York,2
33034,0.414756446991404,0.3944991419022672,0.0691780821917808,0.5191570881226054,25.4195,-80.86342,Homestead,FL,Florida,True,,22129.0,7.3,12086,Miami-Dade,"{""12086"": 52.45, ""12087"": 47.55}",Miami-Dade|Monroe,12086|12087,False,False,America/New_York,1
33334,0.1714935660204393,0.1567437444904048,0.3114451476793249,0.6225347806145849,26.18316,-80.13456,Fort Lauderdale,FL,Florida,True,,30889.0,2501.9,12011,Broward,"{""12011"": 100}",Broward,12011,False,False,America/New_York,2
33446,0.096170114588941,0.0313773744520495,0.4525380601198948,0.3552516219533578,26.45444,-80.18353,Delray Beach,FL,Florida,True,,28018.0,576.5,12099,Palm Beach,"{""12099"": 100}",Palm Beach,12099,False,False,America/New_York,2
33570,0.1882794689553439,0.1301765275135983,0.1673298846000795,0.5906307845650007,27.69354,-82.45861,Ruskin,FL,Florida,True,,33676.0,310.9,12057,Hillsborough,"{""12057"": 100}",Hillsborough,12057,False,False,America/New_York,0
33634,0.1658072193573978,0.1356133632642281,0.2951271451835149,0.6299435028248588,28.00769,-82.54614,Tampa,FL,Florida,True,,21643.0,990.2,12057,Hillsborough,"{""12057"": 100}",Hillsborough,12057,False,False,America/New_York,2
33890,0.2412631578947368,0.018018018018018,0.074036850921273,0.3787489288774636,27.4558,-81.68354,Zolfo Springs,FL,Florida,True,,4991.0,7.6,12049,Hardee,"{""12049"": 100}",Hardee,12049,False,False,America/New_York,0
33843,0.1586776859504132,0.1015228426395939,0.1231953801732435,0.3203883495145631,27.73131,-81.5108,Frostproof,FL,Florida,True,,11072.0,34.5,12105,Polk,"{""12105"": 100}",Polk,12105,False,False,America/New_York,0
33844,0.1967974071632608,0.2138906296831149,0.1433929141398021,0.479023646071701,28.08616,-81.58717,Haines City,FL,Florida,True,,49133.0,195.2,12105,Polk,"{""12105"": 100}",Polk,12105,False,False,America/New_York,0
33847,0.1590909090909091,0.034090909090909,0.2068965517241379,0.0769230769230769,27.80864,-81.82381,Homeland,FL,Florida,True,,434.0,187.2,12105,Polk,"{""12105"": 100}",Polk,12105,False,False,America/New_York,0
33860,0.1546984150830015,0.0947086602461607,0.1522991752344367,0.5870154729621949,27.8056,-81.99511,Mulberry,FL,Florida,True,,25617.0,100.5,12105,Polk,"{""12105"": 98.69, ""12057"": 1.31}",Polk|Hillsborough,12105|12057,False,False,America/New_York,0
33873,0.2346596185441817,0.0696229346137551,0.1087350079203439,0.381791483113069,27.56181,-81.77855,Wauchula,FL,Florida,True,,14162.0,43.9,12049,Hardee,"{""12049"": 100}",Hardee,12049,False,False,America/New_York,0
33884,0.0952275108754326,0.0867297542084387,0.2808479405923495,0.5638297872340425,27.97669,-81.67653,Winter Haven,FL,Florida,True,,36395.0,563.5,12105,Polk,"{""12105"": 100}",Polk,12105,False,False,America/New_York,2
33921,0.1035758323057953,0.1734317343173431,0.3973509933774834,0.1521739130434782,26.77919,-82.25386,Boca Grande,FL,Florida,True,,633.0,88.5,12071,Lee,"{""12071"": 71.39, ""12015"": 28.61}",Lee|Charlotte,12071|12015,False,False,America/New_York,0
33924,0.517948717948718,0.2615384615384615,0.2076502732240437,0.3823529411764705,26.54521,-82.19832,Captiva,FL,Florida,True,,139.0,19.4,12071,Lee,"{""12071"": 100}",Lee,12071,False,False,America/New_York,1
33629,0.0454865877638852,0.0124163925945087,0.7043707327563035,0.6710267392059266,27.92181,-82.51007,Tampa,FL,Florida,True,,27356.0,2195.7,12057,Hillsborough,"{""12057"": 100}",Hillsborough,12057,False,False,America/New_York,2
33703,0.0754694835680751,0.0338923693528931,0.4292373098396763,0.5878780662062396,27.81756,-82.62433,Saint Petersburg,FL,Florida,True,,25948.0,1997.0,12103,Pinellas,"{""12103"": 100}",Pinellas,12103,False,False,America/New_York,2
33712,0.1928825914247102,0.6800468914221036,0.2895956071612423,0.6370522006141248,27.73719,-82.66535,Saint Petersburg,FL,Florida,True,,25871.0,1561.4,12103,Pinellas,"{""12103"": 100}",Pinellas,12103,False,False,America/New_York,1
33513,0.1597282036558522,0.0963580586800912,0.1005791935843172,0.3967809657102869,28.66849,-82.17143,Bushnell,FL,Florida,True,,13647.0,61.6,12119,Sumter,"{""12119"": 100}",Sumter,12119,False,False,America/New_York,0
33538,0.1774946921443736,0.0114213197969543,0.1214436248682824,0.3939202026599113,28.84679,-82.18218,Lake Panasoffkee,FL,Florida,True,,5748.0,24.9,12119,Sumter,"{""12119"": 100}",Sumter,12119,False,False,America/New_York,0
33547,0.0600794825839632,0.0571660169066275,0.5232212160413972,0.7312370216552951,27.77239,-82.13665,Lithia,FL,Florida,True,,31268.0,75.2,12057,Hillsborough,"{""12057"": 97.54, ""12105"": 2.46}",Hillsborough|Polk,12057|12105,False,False,America/New_York,2
33606,0.1091163441361622,0.0633262052877138,0.6961761297798378,0.6752136752136753,27.93209,-82.46493,Tampa,FL,Florida,True,,23511.0,2770.6,12057,Hillsborough,"{""12057"": 100}",Hillsborough,12057,False,False,America/New_York,2
33616,0.1497454327643007,0.1343781657827304,0.3369492095526404,0.7110266159695817,27.86712,-82.5287,Tampa,FL,Florida,True,,14789.0,1454.0,12057,Hillsborough,"{""12057"": 100}",Hillsborough,12057,False,False,America/New_York,2
33068,0.1818510140850424,0.5768640163794574,0.1762938133903545,0.75719828466408,26.21644,-80.21535,Pompano Beach,FL,Florida,True,,53552.0,3212.3,12011,Broward,"{""12011"": 100}",Broward,12011,False,False,America/New_York,1
33109,0.1029411764705882,0.0,0.826530612244898,0.0,25.7616,-80.14197,Miami Beach,FL,Florida,True,,893.0,1092.5,12086,Miami-Dade,"{""12086"": 100}",Miami-Dade,12086,False,False,America/New_York,2
33142,0.3406144983197312,0.3494151304318386,0.1243563856638061,0.5791050365100169,25.80665,-80.25517,Miami,FL,Florida,True,,56437.0,1998.1,12086,Miami-Dade,"{""12086"": 100}",Miami-Dade,12086,False,False,America/New_York,1
33144,0.1249871799254726,0.0319315703380588,0.2318748139643662,0.4614381520119225,25.76335,-80.31228,Miami,FL,Florida,True,,26288.0,3284.9,12086,Miami-Dade,"{""12086"": 100}",Miami-Dade,12086,False,False,America/New_York,0
33189,0.1116924296472453,0.1682741718712941,0.2616516292167117,0.7548427410956051,25.57314,-80.33929,Miami,FL,Florida,True,,24627.0,1868.5,12086,Miami-Dade,"{""12086"": 100}",Miami-Dade,12086,False,False,America/New_York,2
33323,0.0340066716085989,0.1758348344187335,0.3943312434691745,0.7043227665706052,26.14988,-80.32222,Fort Lauderdale,FL,Florida,True,,23083.0,1186.6,12011,Broward,"{""12011"": 100}",Broward,12011,False,False,America/New_York,2
33332,0.0390395577820003,0.0670280502495267,0.6160738165284836,0.7540869565217392,26.03825,-80.44352,Fort Lauderdale,FL,Florida,True,,11603.0,130.5,12011,Broward,"{""12011"": 100}",Broward,12011,False,False,America/New_York,2
33411,0.0737709505022524,0.2371047335483693,0.345480992255376,0.6208291763662566,26.71517,-80.20305,West Palm Beach,FL,Florida,True,,75299.0,834.2,12099,Palm Beach,"{""12099"": 100}",Palm Beach,12099,False,False,America/New_York,2
33431,0.0850318471337579,0.0596483109671448,0.531472474800874,0.4940070071915913,26.37996,-80.1028,Boca Raton,FL,Florida,True,,23150.0,1072.7,12099,Palm Beach,"{""12099"": 100}",Palm Beach,12099,False,False,America/New_York,2
33441,0.16552788186026,0.3209384035428028,0.2479934242336331,0.5507992895204263,26.31096,-80.09885,Deerfield Beach,FL,Florida,True,,30214.0,2433.5,12011,Broward,"{""12011"": 100}",Broward,12011,False,False,America/New_York,1
33594,0.086778398510242,0.1195157551300764,0.2798863326715715,0.6698178237321516,27.94081,-82.24207,Valrico,FL,Florida,True,,36289.0,1369.4,12057,Hillsborough,"{""12057"": 100}",Hillsborough,12057,False,False,America/New_York,2
33549,0.0729853582206326,0.055672852539171,0.3690199895186045,0.6448015122873346,28.1392,-82.44624,Lutz,FL,Florida,True,,18816.0,595.7,12057,Hillsborough,"{""12057"": 81.78, ""12101"": 18.22}",Hillsborough|Pasco,12057|12101,False,False,America/New_York,2
33569,0.0965622018867257,0.1286829336896139,0.320643153526971,0.7137983320697499,27.84429,-82.29069,Riverview,FL,Florida,True,,26613.0,737.9,12057,Hillsborough,"{""12057"": 100}",Hillsborough,12057,False,False,America/New_York,2
33573,0.0855087088141096,0.0702632714717306,0.3231451236584228,0.4152958152958153,27.72179,-82.36,Sun City Center,FL,Florida,True,,30820.0,708.3,12057,Hillsborough,"{""12057"": 100}",Hillsborough,12057,False,False,America/New_York,0
33602,0.1687354538401861,0.183882971897857,0.5410120786295097,0.6452012383900929,27.95371,-82.45675,Tampa,FL,Florida,True,,19694.0,2933.9,12057,Hillsborough,"{""12057"": 100}",Hillsborough,12057,False,False,America/New_York,2
33624,0.0785239815118834,0.0909227947642137,0.3811297542972354,0.6975276714596048,28.07903,-82.52608,Tampa,FL,Florida,True,,40533.0,1722.0,12057,Hillsborough,"{""12057"": 100}",Hillsborough,12057,False,False,America/New_York,2
33710,0.0865041704736361,0.0582958330898252,0.3124324741472449,0.6030360531309298,27.7898,-82.73069,Saint Petersburg,FL,Florida,True,,35113.0,1700.5,12103,Pinellas,"{""12103"": 100}",Pinellas,12103,False,False,America/New_York,2
33759,0.1078102271455745,0.0518754112744022,0.3091415585367641,0.4506690859605353,27.98095,-82.7145,Clearwater,FL,Florida,True,,17647.0,1291.3,12103,Pinellas,"{""12103"": 100}",Pinellas,12103,False,False,America/New_York,0
33762,0.1439008894536213,0.1157390783961699,0.3333825047942174,0.6063031515757878,27.89685,-82.67946,Clearwater,FL,Florida,True,,5039.0,274.3,12103,Pinellas,"{""12103"": 100}",Pinellas,12103,False,False,America/New_York,2
33771,0.1131878493971846,0.0493989790877655,0.2201742204267138,0.3291629046820585,27.90585,-82.7583,Largo,FL,Florida,True,,27908.0,1799.3,12103,Pinellas,"{""12103"": 100}",Pinellas,12103,False,False,America/New_York,0
33773,0.1044956077395647,0.0309747087240693,0.2634416654186011,0.5891665077245851,27.88156,-82.75594,Largo,FL,Florida,True,,16918.0,1291.8,12103,Pinellas,"{""12103"": 100}",Pinellas,12103,False,False,America/New_York,2
33774,0.1328480942326925,0.083936564071393,0.2850753805092693,0.5208145611821949,27.88275,-82.8278,Largo,FL,Florida,True,,20018.0,1685.4,12103,Pinellas,"{""12103"": 100}",Pinellas,12103,False,False,America/New_York,2
33810,0.1271523178807947,0.1492207512857115,0.1753094024752198,0.5727568221331922,28.13027,-82.03989,Lakeland,FL,Florida,True,,52734.0,315.0,12105,Polk,"{""12105"": 73.18, ""12057"": 26.82}",Polk|Hillsborough,12105|12057,False,False,America/New_York,0
33813,0.0380580181503436,0.039383472025959,0.3772649317724256,0.636163912503582,27.94789,-81.92701,Lakeland,FL,Florida,True,,38112.0,700.8,12105,Polk,"{""12105"": 100}",Polk,12105,False,False,America/New_York,2
33830,0.1711123723041997,0.2033998061210358,0.1873716362104376,0.5388897725465246,27.88234,-81.80565,Bartow,FL,Florida,True,,32738.0,104.9,12105,Polk,"{""12105"": 100}",Polk,12105,False,False,America/New_York,0
33834,0.2504721030042918,0.1174906964380648,0.1087301587301587,0.3351955307262569,27.62778,-81.92115,Bowling Green,FL,Florida,True,,6139.0,17.7,12049,Hardee,"{""12049"": 65.8, ""12105"": 34.2}",Hardee|Polk,12049|12105,False,False,America/New_York,0
33837,0.1374823382512404,0.11957302343801,0.2554028414086723,0.6430484864720064,28.19012,-81.59163,Davenport,FL,Florida,True,,45144.0,339.5,12105,Polk,"{""12105"": 100}",Polk,12105,False,False,America/New_York,2
33838,0.2411656723267554,0.2606700321248279,0.0507273405445729,0.4446064139941691,28.01851,-81.60956,Dundee,FL,Florida,True,,5431.0,286.1,12105,Polk,"{""12105"": 100}",Polk,12105,False,False,America/New_York,0
33908,0.1132653347944589,0.0156656533289513,0.4158343638035448,0.4140006335128286,26.48857,-81.91319,Fort Myers,FL,Florida,True,,38319.0,432.3,12071,Lee,"{""12071"": 100}",Lee,12071,False,False,America/New_York,2
33922,0.1404576436222006,0.0786270691333982,0.2457209167391935,0.4119278779472954,26.66476,-82.15897,Bokeelia,FL,Florida,True,,4179.0,77.4,12071,Lee,"{""12071"": 100}",Lee,12071,False,False,America/New_York,0
33931,0.1058968524838832,0.0013250047321597,0.3850540806293018,0.2831931048635338,26.44036,-81.90974,Fort Myers Beach,FL,Florida,True,,8763.0,328.8,12071,Lee,"{""12071"": 100}",Lee,12071,False,False,America/New_York,0
33935,0.2153713298791019,0.0449963849785225,0.0910704533042053,0.4140222984562607,26.75692,-81.41966,Labelle,FL,Florida,True,,22254.0,23.6,12051,Hendry,"{""12051"": 58.3, ""12043"": 41.7}",Hendry|Glades,12051|12043,False,False,America/New_York,0
33952,0.1826888107649412,0.101916741539383,0.1718011285648925,0.570682302771855,26.99008,-82.0972,Port Charlotte,FL,Florida,True,,33991.0,1190.4,12015,Charlotte,"{""12015"": 100}",Charlotte,12015,False,False,America/New_York,0
33980,0.1120385970286414,0.0688802278518962,0.2323175845680738,0.4144706426259824,26.98062,-82.05206,Punta Gorda,FL,Florida,True,,13235.0,558.2,12015,Charlotte,"{""12015"": 100}",Charlotte,12015,False,False,America/New_York,0
33027,0.1186407158984162,0.2183292407587468,0.3388501543033489,0.4997637888272115,25.98245,-80.34359,Hollywood,FL,Florida,True,,63486.0,1834.7,12011,Broward,"{""12011"": 100}",Broward,12011,False,False,America/New_York,2
33013,0.2304024413503719,0.0237134207870837,0.1268990529921418,0.5130481093555832,25.86209,-80.27032,Hialeah,FL,Florida,True,,29100.0,2966.7,12086,Miami-Dade,"{""12086"": 100}",Miami-Dade,12086,False,False,America/New_York,0
33033,0.2226138082794663,0.1664983654817122,0.2196209587513935,0.6738359455439881,25.47858,-80.4057,Homestead,FL,Florida,True,,69075.0,1194.4,12086,Miami-Dade,"{""12086"": 100}",Miami-Dade,12086,False,False,America/New_York,0
33050,0.1156469835855894,0.0670337816371915,0.3188445292274152,0.4150862068965517,24.72843,-81.03405,Marathon,FL,Florida,True,,10586.0,450.2,12087,Monroe,"{""12087"": 100}",Monroe,12087,False,False,America/New_York,0
33063,0.1179669986402557,0.2515034639077266,0.2300248954859317,0.5688676811968016,26.25138,-80.21014,Pompano Beach,FL,Florida,True,,55539.0,2613.7,12011,Broward,"{""12011"": 100}",Broward,12011,False,False,America/New_York,2
33067,0.0354903758020165,0.1471964324877549,0.5043105785392832,0.7125512715340443,26.307,-80.2257,Pompano Beach,FL,Florida,True,,25638.0,1001.4,12011,Broward,"{""12011"": 100}",Broward,12011,False,False,America/New_York,2
33069,0.1481761406579418,0.4164475087070865,0.274344301382928,0.445183355500665,26.23565,-80.15808,Pompano Beach,FL,Florida,True,,28957.0,1192.2,12011,Broward,"{""12011"": 100}",Broward,12011,False,False,America/New_York,1
33125,0.2978687156072712,0.0766891228988161,0.1575112476681663,0.5481386392811296,25.7839,-80.23738,Miami,FL,Florida,True,,55449.0,5464.1,12086,Miami-Dade,"{""12086"": 100}",Miami-Dade,12086,False,False,America/New_York,0
33127,0.3158967824147817,0.47316782646856,0.1616110471806674,0.4873658705434406,25.81307,-80.20553,Miami,FL,Florida,True,,27585.0,3233.1,12086,Miami-Dade,"{""12086"": 100}",Miami-Dade,12086,False,False,America/New_York,1
34638,0.0679083798098846,0.092488377783215,0.3991693326598193,0.7993492407809111,28.26035,-82.52036,Land O'Lakes,FL,Florida,True,,35900.0,299.5,12101,Pasco,"{""12101"": 100}",Pasco,12101,False,False,America/New_York,2
34688,0.1068445163028833,0.0060459492140266,0.4366812227074236,0.5285071267816954,28.14445,-82.68543,Tarpon Springs,FL,Florida,True,,8767.0,213.7,12103,Pinellas,"{""12103"": 100}",Pinellas,12103,False,False,America/New_York,2
34714,0.137634793503065,0.1316353887399463,0.3045390921815636,0.6164527115535761,28.40406,-81.80132,Clermont,FL,Florida,True,,26826.0,83.1,12069,Lake,"{""12069"": 99.61, ""12105"": 0.39}",Lake|Polk,12069|12105,False,False,America/New_York,2
34715,0.0492404090559791,0.1379310344827586,0.2641782640173759,0.6890290037831022,28.6242,-81.73019,Clermont,FL,Florida,True,,25407.0,311.0,12069,Lake,"{""12069"": 100}",Lake,12069,False,False,America/New_York,2
34772,0.0809167146789578,0.0855706832930398,0.2099166343544009,0.7313452272431307,28.16534,-81.27273,Saint Cloud,FL,Florida,True,,33542.0,149.1,12097,Osceola,"{""12097"": 100}",Osceola,12097,False,False,America/New_York,2
34653,0.1724455263314136,0.0356192899271423,0.1601060098214981,0.4829457364341085,28.24266,-82.69308,New Port Richey,FL,Florida,True,,36086.0,1273.6,12101,Pasco,"{""12101"": 100}",Pasco,12101,False,False,America/New_York,0
34982,0.1979012296231025,0.1303759697632783,0.1527969517919266,0.4326909551273034,27.37669,-80.31082,Fort Pierce,FL,Florida,True,,27447.0,683.6,12111,St. Lucie,"{""12111"": 100}",St. Lucie,12111,False,False,America/New_York,0
34233,0.081665240946678,0.0072043676478865,0.3608247422680412,0.4713648834019204,27.2836,-82.47311,Sarasota,FL,Florida,True,,18875.0,1190.7,12115,Sarasota,"{""12115"": 100}",Sarasota,12115,False,False,America/New_York,2
34951,0.1332863187588152,0.0931252192213258,0.1721501911114442,0.4094608341810783,27.52268,-80.41783,Fort Pierce,FL,Florida,True,,16871.0,267.7,12111,St. Lucie,"{""12111"": 100}",St. Lucie,12111,False,False,America/New_York,0
34956,0.2674085121027876,0.2288945213491909,0.0775746767721801,0.4324866310160428,27.07969,-80.50074,Indiantown,FL,Florida,True,,9639.0,22.4,12085,Martin,"{""12085"": 100}",Martin,12085,False,False,America/New_York,0
34972,0.2304836895388076,0.1303348182210087,0.1062649248489956,0.5386872998932765,27.48016,-80.90926,Okeechobee,FL,Florida,True,,19185.0,8.7,12093,Okeechobee,"{""12093"": 79.8, ""12097"": 14.45, ""12111"": 5.75}",Okeechobee|Osceola|St. Lucie,12093|12097|12111,False,False,America/New_York,0
34974,0.1892220591318934,0.0306028724114896,0.1196466510119646,0.3621790694643555,27.15062,-80.91371,Okeechobee,FL,Florida,True,,23994.0,24.6,12043,Glades,"{""12043"": 52.13, ""12093"": 22.42, ""12085"": 15.53, ""12055"": 9.92}",Glades|Okeechobee|Martin|Highlands,12043|12093|12085|12055,False,False,America/New_York,0
34744,0.1051832229580573,0.0932719571533587,0.2401789756838096,0.6759620189905048,28.2954,-81.34675,Kissimmee,FL,Florida,True,,62756.0,728.6,12097,Osceola,"{""12097"": 100}",Osceola,12097,False,False,America/New_York,2
34753,0.2944650691866352,0.1545853000674308,0.0562248995983935,0.7755406413124534,28.58684,-81.89624,Mascotte,FL,Florida,True,,7479.0,611.7,12069,Lake,"{""12069"": 100}",Lake,12069,False,False,America/New_York,1
34787,0.0935655595417197,0.1462930147479135,0.4146757315487734,0.7023401660763022,28.48309,-81.62833,Winter Garden,FL,Florida,True,,93064.0,534.3,12095,Orange,"{""12095"": 83.13, ""12069"": 16.87}",Orange|Lake,12095|12069,False,False,America/New_York,2
34236,0.10880788485607,0.0520541726564273,0.5453638253638253,0.303531009506564,27.32964,-82.55874,Sarasota,FL,Florida,True,,13916.0,1511.2,12115,Sarasota,"{""12115"": 100}",Sarasota,12115,False,False,America/New_York,2
33301,0.0520495844485138,0.0833333333333333,0.6281198654252406,0.6174231745136736,26.12128,-80.12745,Fort Lauderdale,FL,Florida,True,,17831.0,2762.0,12011,Broward,"{""12011"": 100}",Broward,12011,False,False,America/New_York,2
33304,0.1652373409078494,0.1809165713040161,0.4717415619448648,0.5603651354534747,26.13845,-80.12166,Fort Lauderdale,FL,Florida,True,,18566.0,2296.9,12011,Broward,"{""12011"": 100}",Broward,12011,False,False,America/New_York,2
33401,0.17298937784522,0.3907344790323143,0.3823148885350318,0.4684317718940937,26.71805,-80.0685,West Palm Beach,FL,Florida,True,,31964.0,2431.6,12099,Palm Beach,"{""12099"": 100}",Palm Beach,12099,False,False,America/New_York,1
33407,0.2330406253015536,0.6075877151278882,0.2296313688659309,0.6227951153324288,26.75841,-80.09195,West Palm Beach,FL,Florida,True,,34728.0,1359.8,12099,Palm Beach,"{""12099"": 100}",Palm Beach,12099,False,False,America/New_York,1
33410,0.0770805698137147,0.0580523810880902,0.4109228971962617,0.559566054952854,26.84629,-80.08823,Palm Beach Gardens,FL,Florida,True,,36409.0,1236.4,12099,Palm Beach,"{""12099"": 100}",Palm Beach,12099,False,False,America/New_York,2
33442,0.1076837377711241,0.0950490263775721,0.3264150943396226,0.4359251649183518,26.31012,-80.14503,Deerfield Beach,FL,Florida,True,,31146.0,1754.8,12011,Broward,"{""12011"": 100}",Broward,12011,False,False,America/New_York,0
33461,0.1974887287742805,0.1931077825494919,0.1545375380979038,0.5576546319619368,26.61936,-80.09048,Lake Worth,FL,Florida,True,,49245.0,2673.6,12099,Palm Beach,"{""12099"": 100}",Palm Beach,12099,False,False,America/New_York,0
33019,0.0884115154172146,0.0200305921771432,0.5186102024577844,0.4630238290879211,26.02346,-80.1236,Hollywood,FL,Florida,True,,13168.0,1357.6,12011,Broward,"{""12011"": 100}",Broward,12011,False,False,America/New_York,2
33029,0.0523062192989759,0.1574510496044517,0.4311629824617043,0.7186180752993883,25.99184,-80.40794,Hollywood,FL,Florida,True,,44109.0,1016.0,12011,Broward,"{""12011"": 100}",Broward,12011,False,False,America/New_York,2
33042,0.0706060606060606,0.0224973576928884,0.421455938697318,0.4636324968098681,24.67481,-81.50717,Summerland Key,FL,Florida,True,,6781.0,94.9,12087,Monroe,"{""12087"": 100}",Monroe,12087,False,False,America/New_York,2
33065,0.1405758528913622,0.2967458011724055,0.2838892640108035,0.7151220589859715,26.27318,-80.26029,Coral Springs,FL,Florida,True,,59653.0,2684.7,12011,Broward,"{""12011"": 100}",Broward,12011,False,False,America/New_York,2
33458,0.0861567581519401,0.0351875191606771,0.4638999708086017,0.6761425900857345,26.93477,-80.12906,Jupiter,FL,Florida,True,,55969.0,1061.6,12099,Palm Beach,"{""12099"": 80.72, ""12085"": 19.28}",Palm Beach|Martin,12099|12085,False,False,America/New_York,2
33486,0.1154513888888889,0.0414576634512325,0.5290291496025055,0.5861001688238604,26.34729,-80.11449,Boca Raton,FL,Florida,True,,23252.0,1677.7,12099,Palm Beach,"{""12099"": 100}",Palm Beach,12099,False,False,America/New_York,2
33498,0.049491211840888,0.0214521452145214,0.5513513513513514,0.6718304117407257,26.39529,-80.21982,Boca Raton,FL,Florida,True,,17192.0,663.3,12099,Palm Beach,"{""12099"": 100}",Palm Beach,12099,False,False,America/New_York,2
33511,0.1048218029350104,0.1805959240562269,0.3417039051874878,0.6956832603449816,27.9099,-82.29405,Brandon,FL,Florida,True,,60399.0,1453.4,12057,Hillsborough,"{""12057"": 100}",Hillsborough,12057,False,False,America/New_York,2
33534,0.199225624780007,0.1698884541260293,0.1685115635501087,0.7406521088842357,27.82273,-82.37505,Gibsonton,FL,Florida,True,,18018.0,527.9,12057,Hillsborough,"{""12057"": 100}",Hillsborough,12057,False,False,America/New_York,2
33815,0.2285676427719623,0.2689463955637708,0.0912629314759807,0.1931540342298288,28.04067,-81.99634,Lakeland,FL,Florida,True,,14457.0,756.3,12105,Polk,"{""12105"": 100}",Polk,12105,False,False,America/New_York,0
33839,0.16746126340882,0.0589988081048867,0.1370386084005091,0.4500683994528043,27.97481,-81.75365,Eagle Lake,FL,Florida,True,,4397.0,541.8,12105,Polk,"{""12105"": 100}",Polk,12105,False,False,America/New_York,0
34683,0.0811886521426861,0.0195142328579101,0.3679619349722443,0.5759731278403477,28.08626,-82.76025,Palm Harbor,FL,Florida,True,,34180.0,1282.6,12103,Pinellas,"{""12103"": 100}",Pinellas,12103,False,False,America/New_York,2
34690,0.1951262272089761,0.0507538569424964,0.1205336951605608,0.4746408677807094,28.19228,-82.72726,Holiday,FL,Florida,True,,12447.0,1402.0,12101,Pasco,"{""12101"": 99.78, ""12103"": 0.22}",Pasco|Pinellas,12101|12103,False,False,America/New_York,0
34758,0.1567631505705538,0.2460190529170433,0.1488797169811321,0.7605827377680044,28.19142,-81.4871,Kissimmee,FL,Florida,True,,46521.0,688.8,12097,Osceola,"{""12097"": 100}",Osceola,12097,False,False,America/New_York,2
34946,0.1990756025090789,0.5695015627570325,0.1337888472558959,0.3295724465558194,27.50456,-80.36106,Fort Pierce,FL,Florida,True,,6588.0,167.1,12111,St. Lucie,"{""12111"": 100}",St. Lucie,12111,False,False,America/New_York,1
34957,0.0891603847153626,0.0320634373383899,0.3403078528567702,0.4348200024573043,27.28399,-80.24252,Jensen Beach,FL,Florida,True,,23094.0,545.0,12111,St. Lucie,"{""12111"": 57.69, ""12085"": 42.31}",St. Lucie|Martin,12111|12085,False,False,America/New_York,2
34990,0.0574358286978084,0.0079669322310743,0.4432547232423344,0.5568513119533528,27.13623,-80.35655,Palm City,FL,Florida,True,,29874.0,111.9,12085,Martin,"{""12085"": 97.47, ""12111"": 2.53}",Martin|St. Lucie,12085|12111,False,False,America/New_York,2
34613,0.1163935343139996,0.0280629323811649,0.1607237189646064,0.4157764995891536,28.56183,-82.53803,Brooksville,FL,Florida,True,,18280.0,189.9,12053,Hernando,"{""12053"": 100}",Hernando,12053,False,False,America/New_York,0
34614,0.0994844642608332,0.0289089645587213,0.1553323029366306,0.6404809619238477,28.64627,-82.51324,Brooksville,FL,Florida,True,,9561.0,67.2,12053,Hernando,"{""12053"": 100}",Hernando,12053,False,False,America/New_York,2
34639,0.0536618754277891,0.0462323524408913,0.3865662086965086,0.7437705117296706,28.24456,-82.42475,Land O'Lakes,FL,Florida,True,,31118.0,444.0,12101,Pasco,"{""12101"": 100}",Pasco,12101,False,False,America/New_York,2
34654,0.1260449034968707,0.0269457161543492,0.1755528887364992,0.503935860058309,28.29757,-82.62904,New Port Richey,FL,Florida,True,,24357.0,371.4,12101,Pasco,"{""12101"": 100}",Pasco,12101,False,False,America/New_York,0
34746,0.123913290205425,0.098404315345205,0.2494649148803056,0.5844948738624582,28.24233,-81.4423,Kissimmee,FL,Florida,True,,57181.0,501.3,12097,Osceola,"{""12097"": 100}",Osceola,12097,False,False,America/New_York,2
34786,0.0901788254864622,0.0808316607033772,0.6086197050623131,0.7562057574327513,28.48161,-81.55501,Windermere,FL,Florida,True,,43700.0,850.5,12095,Orange,"{""12095"": 100}",Orange,12095,False,False,America/New_York,2
34947,0.3021294840645991,0.5433415754150477,0.1169431279620853,0.5158831003811944,27.44903,-80.37633,Fort Pierce,FL,Florida,True,,13192.0,524.7,12111,St. Lucie,"{""12111"": 100}",St. Lucie,12111,False,False,America/New_York,1
34949,0.0864197530864197,0.0044369046065509,0.4343517753922378,0.2971014492753623,27.4668,-80.30417,Fort Pierce,FL,Florida,True,,7567.0,311.2,12111,St. Lucie,"{""12111"": 100}",St. Lucie,12111,False,False,America/New_York,0
34105,0.0463498120195275,0.0270390317028482,0.475454857535187,0.4735124760076775,26.18938,-81.7626,Naples,FL,Florida,True,,16102.0,655.4,12021,Collier,"{""12021"": 100}",Collier,12021,False,False,America/New_York,2
34135,0.0908706767235004,0.0322662387025931,0.3481706200800272,0.4292148032112786,26.36923,-81.73303,Bonita Springs,FL,Florida,True,,46983.0,293.6,12071,Lee,"{""12071"": 100}",Lee,12071,False,False,America/New_York,2
34137,0.6052227342549923,0.0,0.0,0.5238095238095238,26.03542,-81.40757,Copeland,FL,Florida,True,,480.0,1.6,12021,Collier,"{""12021"": 100}",Collier,12021,False,False,America/New_York,1
34145,0.0602781204440955,0.0007289447123472,0.4484157160963244,0.4111792774369461,25.91903,-81.69506,Marco Island,FL,Florida,True,,15998.0,379.8,12021,Collier,"{""12021"": 100}",Collier,12021,False,False,America/New_York,2
33848,0.3839195979899497,0.0313111545988258,0.037243947858473,0.2040816326530612,28.27594,-81.50824,Intercession City,FL,Florida,True,,326.0,11.5,12097,Osceola,"{""12097"": 100}",Osceola,12097,False,False,America/New_York,0
33851,0.0849956634865568,0.0199479618386817,0.1027568922305764,0.7275541795665634,28.04439,-81.62677,Lake Hamilton,FL,Florida,True,,1109.0,329.3,12105,Polk,"{""12105"": 100}",Polk,12105,False,False,America/New_York,2
33865,0.2599164926931106,0.0991649269311064,0.0968586387434555,0.1477272727272727,27.42944,-81.96262,Ona,FL,Florida,True,,388.0,0.9,12049,Hardee,"{""12049"": 97.04, ""12027"": 2.96}",Hardee|DeSoto,12049|12027,False,False,America/New_York,0
33880,0.1877078885965347,0.1681433401614057,0.1225418790968681,0.5258310871518419,27.9914,-81.77448,Winter Haven,FL,Florida,True,,42336.0,504.7,12105,Polk,"{""12105"": 100}",Polk,12105,False,False,America/New_York,0
33881,0.2261479964902018,0.3069598136284217,0.1717948717948718,0.4162759544541192,28.05439,-81.70081,Winter Haven,FL,Florida,True,,39189.0,690.6,12105,Polk,"{""12105"": 100}",Polk,12105,False,False,America/New_York,1
33905,0.1446800265721878,0.0793769337458657,0.1823032124741687,0.4945500633713561,26.66873,-81.76166,Fort Myers,FL,Florida,True,,40908.0,393.3,12071,Lee,"{""12071"": 100}",Lee,12071,False,False,America/New_York,0
33909,0.0981239161280151,0.0791811023622047,0.193159140483594,0.6651014843986671,26.72032,-81.96443,Cape Coral,FL,Florida,True,,36917.0,376.9,12071,Lee,"{""12071"": 100}",Lee,12071,False,False,America/New_York,2
33914,0.0846524792955236,0.0293095791645986,0.2655503957093335,0.6366475793857366,26.57052,-82.01944,Cape Coral,FL,Florida,True,,44439.0,765.4,12071,Lee,"{""12071"": 100}",Lee,12071,False,False,America/New_York,2
33930,0.1817204301075269,0.0,0.0850622406639004,0.5794701986754967,26.55916,-81.40069,Felda,FL,Florida,True,,1058.0,3.7,12051,Hendry,"{""12051"": 100}",Hendry,12051,False,False,America/New_York,0
33955,0.0912730184147317,0.0828961175236096,0.2610364683301343,0.3938195302843016,26.82528,-81.97007,Punta Gorda,FL,Florida,True,,10503.0,51.7,12015,Charlotte,"{""12015"": 98.42, ""12071"": 1.58}",Charlotte|Lee,12015|12071,False,False,America/New_York,0
33956,0.114646030381198,0.0,0.2583436341161928,0.484159779614325,26.54622,-82.09589,Saint James City,FL,Florida,True,,3846.0,91.2,12071,Lee,"{""12071"": 100}",Lee,12071,False,False,America/New_York,0
33972,0.1396361273554256,0.1595230422172091,0.1574577726882336,0.7272727272727273,26.64954,-81.61721,Lehigh Acres,FL,Florida,True,,16523.0,252.4,12071,Lee,"{""12071"": 100}",Lee,12071,False,False,America/New_York,2
33983,0.0867323019221753,0.1043046357615894,0.2655488065702797,0.5523829087921117,27.00712,-82.01508,Punta Gorda,FL,Florida,True,,18230.0,661.9,12015,Charlotte,"{""12015"": 100}",Charlotte,12015,False,False,America/New_York,2
33169,0.1777045685771038,0.8100706289338394,0.1910482748516592,0.7617139334155364,25.94298,-80.2147,Miami,FL,Florida,True,,42308.0,2389.1,12086,Miami-Dade,"{""12086"": 100}",Miami-Dade,12086,False,False,America/New_York,1
33309,0.1736643573876383,0.4408236215845657,0.2596147183147391,0.6311485565605254,26.18793,-80.17385,Fort Lauderdale,FL,Florida,True,,38074.0,1513.0,12011,Broward,"{""12011"": 100}",Broward,12011,False,False,America/New_York,1
33319,0.1460399227301996,0.5950070533920404,0.2317267888823181,0.5816733067729084,26.1826,-80.22641,Fort Lauderdale,FL,Florida,True,,52474.0,2980.3,12011,Broward,"{""12011"": 100}",Broward,12011,False,False,America/New_York,1
33321,0.1180517219414837,0.2641047813890705,0.2723735408560311,0.5477436004742973,26.2121,-80.2697,Fort Lauderdale,FL,Florida,True,,50414.0,2365.5,12011,Broward,"{""12011"": 100}",Broward,12011,False,False,America/New_York,2
33403,0.1469390950367934,0.4402845083632953,0.2799138028807985,0.6376101860920667,26.8032,-80.07562,West Palm Beach,FL,Florida,True,,13710.0,1600.5,12099,Palm Beach,"{""12099"": 100}",Palm Beach,12099,False,False,America/New_York,1
33404,0.2393074659549716,0.6974675346808002,0.2285543489090365,0.4204953677443751,26.78248,-80.06567,West Palm Beach,FL,Florida,True,,30533.0,1615.7,12099,Palm Beach,"{""12099"": 100}",Palm Beach,12099,False,False,America/New_York,1
33418,0.0603747568512545,0.0626740947075208,0.5417170870954731,0.5498596543063968,26.86077,-80.16641,Palm Beach Gardens,FL,Florida,True,,42979.0,361.9,12099,Palm Beach,"{""12099"": 100}",Palm Beach,12099,False,False,America/New_York,2
33435,0.169538632573652,0.38809931980313,0.2639005359682065,0.5004980079681275,26.52565,-80.06297,Boynton Beach,FL,Florida,True,,36984.0,2191.2,12099,Palm Beach,"{""12099"": 100}",Palm Beach,12099,False,False,America/New_York,1
33440,0.2864996945632254,0.1902737715702646,0.0872337117089099,0.355366027007818,26.54065,-81.04325,Clewiston,FL,Florida,True,,21119.0,11.2,12051,Hendry,"{""12051"": 95.37, ""12099"": 4.63}",Hendry|Palm Beach,12051|12099,False,False,America/New_York,0
33455,0.1048390767970137,0.0613513513513513,0.3675371052337908,0.4500316656111462,27.05748,-80.1703,Hobe Sound,FL,Florida,True,,20980.0,143.2,12085,Martin,"{""12085"": 100}",Martin,12085,False,False,America/New_York,2
33476,0.4300222937825118,0.6641606954070246,0.0921228304405874,0.5287730727470141,26.80109,-80.65305,Pahokee,FL,Florida,True,,7131.0,124.1,12099,Palm Beach,"{""12099"": 100}",Palm Beach,12099,False,False,America/New_York,1
33477,0.0637605208829601,0.0039657360406091,0.5397500433952439,0.4026868756458835,26.91401,-80.0799,Jupiter,FL,Florida,True,,12375.0,771.0,12099,Palm Beach,"{""12099"": 100}",Palm Beach,12099,False,False,America/New_York,2
33478,0.0341831647913402,0.0130802587616407,0.3913207903942516,0.6665923779808335,26.93788,-80.26298,Jupiter,FL,Florida,True,,15205.0,90.9,12099,Palm Beach,"{""12099"": 80.05, ""12085"": 19.95}",Palm Beach|Martin,12099|12085,False,False,America/New_York,2
33527,0.2155441792434013,0.0500265041081367,0.1672727272727272,0.5651558073654391,27.97571,-82.2138,Dover,FL,Florida,True,,16412.0,201.6,12057,Hillsborough,"{""12057"": 100}",Hillsborough,12057,False,False,America/New_York,0
33585,0.0402504472271914,0.0476610767872903,0.061867266591676,0.4441176470588235,28.74089,-82.03347,Sumterville,FL,Florida,True,,1424.0,15.5,12119,Sumter,"{""12119"": 100}",Sumter,12119,False,False,America/New_York,0
33597,0.188931048017794,0.0749156063360166,0.1234795429413933,0.447131341868184,28.52675,-82.08613,Webster,FL,Florida,True,,9424.0,23.6,12119,Sumter,"{""12119"": 55.54, ""12053"": 23.19, ""12101"": 21.27}",Sumter|Hernando|Pasco,12119|12053|12101,False,False,America/New_York,0
33603,0.244586706834871,0.2621454647570907,0.2877774097383239,0.7010516894159767,27.98526,-82.46458,Tampa,FL,Florida,True,,20267.0,1893.9,12057,Hillsborough,"{""12057"": 100}",Hillsborough,12057,False,False,America/New_York,1
33613,0.2929945287382255,0.1881996140060656,0.3054023207152368,0.519872813990461,28.08344,-82.44873,Tampa,FL,Florida,True,,37212.0,1928.7,12057,Hillsborough,"{""12057"": 100}",Hillsborough,12057,False,False,America/New_York,0
33626,0.040984939661061,0.0384803044595517,0.5929409483176573,0.7407983411093831,28.06256,-82.61526,Tampa,FL,Florida,True,,30736.0,967.2,12057,Hillsborough,"{""12057"": 100}",Hillsborough,12057,False,False,America/New_York,2
33782,0.0986304920724067,0.0570319498357718,0.2354853171934544,0.498466929478756,27.85964,-82.70901,Pinellas Park,FL,Florida,True,,22607.0,1620.4,12103,Pinellas,"{""12103"": 100}",Pinellas,12103,False,False,America/New_York,0
33803,0.1068047743174646,0.0813306177868296,0.3299639664935186,0.4790789104184217,28.00887,-81.93604,Lakeland,FL,Florida,True,,29058.0,676.2,12105,Polk,"{""12105"": 100}",Polk,12105,False,False,America/New_York,2
33805,0.3066677332906684,0.3861882564926162,0.1698812626701419,0.4846984698469847,28.09829,-81.91279,Lakeland,FL,Florida,True,,27391.0,407.4,12105,Polk,"{""12105"": 100}",Polk,12105,False,False,America/New_York,1
33907,0.19129056477851,0.1188341724998976,0.2811372091731912,0.5282835639718378,26.56447,-81.87171,Fort Myers,FL,Florida,True,,24828.0,1305.6,12071,Lee,"{""12071"": 100}",Lee,12071,False,False,America/New_York,0
33912,0.0497810929138965,0.004987664914727,0.4415575916230366,0.4325699745547073,26.53288,-81.82502,Fort Myers,FL,Florida,True,,19150.0,348.5,12071,Lee,"{""12071"": 100}",Lee,12071,False,False,America/New_York,2
33920,0.0545221295702373,0.0611885311548934,0.2005342099856174,0.595879556259905,26.72903,-81.6529,Alva,FL,Florida,True,,7689.0,47.8,12071,Lee,"{""12071"": 100}",Lee,12071,False,False,America/New_York,2
33928,0.0634490454744729,0.0182968060140805,0.4495114006514658,0.4712523520802843,26.43545,-81.71002,Estero,FL,Florida,True,,30786.0,285.2,12071,Lee,"{""12071"": 100}",Lee,12071,False,False,America/New_York,2
33936,0.2552922461965167,0.100868784924746,0.1516425608252046,0.5279088050314465,26.6292,-81.5602,Lehigh Acres,FL,Florida,True,,27287.0,291.5,12051,Hendry,"{""12051"": 67.55, ""12071"": 32.45}",Hendry|Lee,12051|12071,False,False,America/New_York,0
32805,0.2743010048055919,0.7583562513221916,0.182787948680986,0.5074921135646687,28.52981,-81.40614,Orlando,FL,Florida,True,,18085.0,1025.9,12095,Orange,"{""12095"": 100}",Orange,12095,False,False,America/New_York,1
32817,0.1849033319621555,0.0848980048689033,0.3554149609229624,0.7089123867069487,28.59002,-81.2445,Orlando,FL,Florida,True,,37894.0,1247.2,12095,Orange,"{""12095"": 100}",Orange,12095,False,False,America/New_York,2
32839,0.2079485421623583,0.4251597776349128,0.1854319593450028,0.5553246753246753,28.48833,-81.40689,Orlando,FL,Florida,True,,51807.0,2692.6,12095,Orange,"{""12095"": 100}",Orange,12095,False,False,America/New_York,1
32948,0.1329984135378107,0.0885774722369116,0.0786759414727752,0.5369946605644547,27.75901,-80.61826,Fellsmere,FL,Florida,True,,6802.0,23.0,12061,Indian River,"{""12061"": 78.68, ""12009"": 21.32}",Indian River|Brevard,12061|12009,False,False,America/New_York,0
32952,0.0703222703222703,0.0141657922350472,0.3942659226476813,0.5898169336384439,28.31749,-80.66832,Merritt Island,FL,Florida,True,,21354.0,670.1,12009,Brevard,"{""12009"": 100}",Brevard,12009,False,False,America/New_York,2
32953,0.1288116877601291,0.0582313379840427,0.3570946326094295,0.5597795364612775,28.45613,-80.69916,Merritt Island,FL,Florida,True,,24834.0,241.2,12009,Brevard,"{""12009"": 100}",Brevard,12009,False,False,America/New_York,2
32955,0.0703995861890598,0.1152253850703283,0.3590126642447289,0.5791515351601189,28.29414,-80.77528,Rockledge,FL,Florida,True,,40413.0,306.8,12009,Brevard,"{""12009"": 100}",Brevard,12009,False,False,America/New_York,2
32967,0.1838344011828487,0.2496527622205296,0.2713946840216532,0.4805450664915449,27.71359,-80.46015,Vero Beach,FL,Florida,True,,26219.0,253.4,12061,Indian River,"{""12061"": 100}",Indian River,12061,False,False,America/New_York,0
32456,0.1058898036732109,0.1570433051269288,0.2992219215155616,0.4288093255620316,29.84586,-85.3188,Port Saint Joe,FL,Florida,True,,7304.0,26.6,12045,Gulf,"{""12045"": 72.37, ""12005"": 20.32, ""12037"": 7.31}",Gulf|Bay|Franklin,12045|12005|12037,False,False,America/New_York,0
32504,0.1677641894010661,0.1713057353071536,0.3744331065759637,0.6099397590361446,30.48495,-87.19093,Pensacola,FL,Florida,True,,22125.0,814.4,12033,Escambia,"{""12033"": 100}",Escambia,12033,False,False,America/Chicago,2
32505,0.2281327960084437,0.4285118008651438,0.1156625225799596,0.4835545297172533,30.45575,-87.26082,Pensacola,FL,Florida,True,,27543.0,820.9,12033,Escambia,"{""12033"": 100}",Escambia,12033,False,False,America/Chicago,1
32506,0.1476743549005643,0.178212960942614,0.2153418124006359,0.603448275862069,30.39152,-87.37167,Pensacola,FL,Florida,True,,35202.0,444.2,12033,Escambia,"{""12033"": 100}",Escambia,12033,False,False,America/Chicago,0
32507,0.1369028114555344,0.175602526098724,0.2905838835042375,0.5280809156241683,30.34035,-87.37706,Pensacola,FL,Florida,True,,32752.0,453.7,12033,Escambia,"{""12033"": 100}",Escambia,12033,False,False,America/Chicago,2
32541,0.084281857165546,0.0330955627819154,0.4449357759528322,0.6029691663494481,30.39666,-86.47486,Destin,FL,Florida,True,,18632.0,572.6,12091,Okaloosa,"{""12091"": 100}",Okaloosa,12091,False,False,America/Chicago,2
32564,0.0968739264857437,0.0,0.1765782250686184,0.7494089834515366,30.72755,-86.7875,Holt,FL,Florida,True,,1958.0,7.3,12113,Santa Rosa,"{""12113"": 50.15, ""12091"": 49.85}",Santa Rosa|Okaloosa,12113|12091,False,False,America/Chicago,2
32568,0.1128636522958289,0.0164738871363477,0.1210428305400372,0.3943514644351464,30.87085,-87.46792,McDavid,FL,Florida,True,,3724.0,7.0,12033,Escambia,"{""12033"": 100}",Escambia,12033,False,False,America/Chicago,0
32579,0.0957571039314908,0.0801895917972528,0.4341623036649215,0.5763397371081901,30.44553,-86.57401,Shalimar,FL,Florida,True,,10775.0,1192.9,12091,Okaloosa,"{""12091"": 100}",Okaloosa,12091,False,False,America/Chicago,2
32609,0.2356273604699958,0.3884605819447898,0.2148324667822068,0.5775106436263461,29.76296,-82.27978,Gainesville,FL,Florida,True,,19694.0,64.7,12001,Alachua,"{""12001"": 100}",Alachua,12001,False,False,America/New_York,1
34207,0.1806007057319885,0.0639259340901576,0.1588190476190476,0.3288180292495804,27.43762,-82.57993,Bradenton,FL,Florida,True,,33840.0,2118.5,12081,Manatee,"{""12081"": 100}",Manatee,12081,False,False,America/New_York,0
34741,0.2771908942121708,0.0997484804024313,0.1827170005136106,0.5960698689956332,28.30544,-81.42567,Kissimmee,FL,Florida,True,,56429.0,1454.9,12097,Osceola,"{""12097"": 100}",Osceola,12097,False,False,America/New_York,0
34748,0.1570189592577652,0.1768266753383195,0.2001076698967635,0.3973453388185981,28.77366,-81.88552,Leesburg,FL,Florida,True,,45960.0,450.0,12069,Lake,"{""12069"": 100}",Lake,12069,False,False,America/New_York,0
34759,0.1627603525530553,0.2166384201606366,0.2306045812992865,0.6347150259067358,28.09113,-81.43774,Kissimmee,FL,Florida,True,,41381.0,211.9,12105,Polk,"{""12105"": 64.62, ""12097"": 35.38}",Polk|Osceola,12105|12097,False,False,America/New_York,2
34771,0.0437101228454432,0.0712521375641269,0.2709077912794853,0.6306030603060306,28.26647,-81.11908,Saint Cloud,FL,Florida,True,,31368.0,78.4,12097,Osceola,"{""12097"": 100}",Osceola,12097,False,False,America/New_York,2
34984,0.0743492103127536,0.2313065169940754,0.2104258825570301,0.6888508452814038,27.24784,-80.33456,Port Saint Lucie,FL,Florida,True,,19207.0,757.0,12111,St. Lucie,"{""12111"": 100}",St. Lucie,12111,False,False,America/New_York,2
34134,0.0450789385287201,0.0112726787620064,0.5231262291499745,0.3035686935212131,26.36634,-81.83503,Bonita Springs,FL,Florida,True,,16403.0,471.2,12071,Lee,"{""12071"": 89.51, ""12021"": 10.49}",Lee|Collier,12071|12021,False,False,America/New_York,2
34237,0.1275370919881305,0.0936860162691605,0.2414801813660962,0.5203698353077145,27.33761,-82.51409,Sarasota,FL,Florida,True,,17568.0,1722.2,12115,Sarasota,"{""12115"": 100}",Sarasota,12115,False,False,America/New_York,0
34103,0.0633591890023807,0.0175184705613527,0.5075022065313327,0.3781893004115226,26.19197,-81.80207,Naples,FL,Florida,True,,11289.0,1123.2,12021,Collier,"{""12021"": 100}",Collier,12021,False,False,America/New_York,2
34110,0.0818269513064631,0.0220526930131732,0.4955919709119888,0.4160452249218186,26.29619,-81.78505,Naples,FL,Florida,True,,24681.0,594.9,12021,Collier,"{""12021"": 94.99, ""12071"": 5.01}",Collier|Lee,12021|12071,False,False,America/New_York,2
34120,0.0778480298069323,0.0697504084737168,0.3095583661621397,0.6539246214968324,26.31382,-81.58344,Naples,FL,Florida,True,,39919.0,109.5,12021,Collier,"{""12021"": 100}",Collier,12021,False,False,America/New_York,2
34201,0.0222667000250187,0.0180135101325994,0.605301914580265,0.4798833819241982,27.4029,-82.46784,Bradenton,FL,Florida,True,,3993.0,450.6,12081,Manatee,"{""12081"": 100}",Manatee,12081,False,False,America/New_York,2
34203,0.1294934324275502,0.0878858638474763,0.2323449950412092,0.4779259815893293,27.44319,-82.50834,Bradenton,FL,Florida,True,,39109.0,975.9,12081,Manatee,"{""12081"": 100}",Manatee,12081,False,False,America/New_York,0
34205,0.190093328288561,0.1289403604384715,0.1957796515858408,0.5206286836935167,27.48418,-82.5835,Bradenton,FL,Florida,True,,30607.0,1830.1,12081,Manatee,"{""12081"": 100}",Manatee,12081,False,False,America/New_York,0
34221,0.1367221345893226,0.1593286882240007,0.2186192778947993,0.4744403608419645,27.57777,-82.54285,Palmetto,FL,Florida,True,,54923.0,393.4,12081,Manatee,"{""12081"": 100}",Manatee,12081,False,False,America/New_York,0
34449,0.2673830594184576,0.0178571428571428,0.0966911764705882,0.3941176470588235,29.10451,-82.68694,Inglis,FL,Florida,True,,3508.0,10.4,12075,Levy,"{""12075"": 92.97, ""12017"": 7.03}",Levy|Citrus,12075|12017,False,False,America/New_York,0
34601,0.177971853930042,0.0829812780717748,0.2048024245250029,0.3900576368876081,28.5892,-82.36857,Brooksville,FL,Florida,True,,23648.0,80.1,12053,Hernando,"{""12053"": 99.77, ""12017"": 0.23}",Hernando|Citrus,12053|12017,False,False,America/New_York,0
34747,0.1078366654092795,0.0739439917579844,0.4796988437752084,0.604908306364617,28.31111,-81.59107,Kissimmee,FL,Florida,True,,27422.0,243.9,12097,Osceola,"{""12097"": 94.75, ""12095"": 5.25}",Osceola|Orange,12097|12095,False,False,America/New_York,2
34788,0.1062496564612763,0.0217116473368878,0.1824368970529932,0.3473365093113902,28.88542,-81.79678,Leesburg,FL,Florida,True,,21867.0,233.6,12069,Lake,"{""12069"": 100}",Lake,12069,False,False,America/New_York,0
34997,0.103413269564825,0.0454606560315468,0.2855815574008478,0.4702579774003269,27.05085,-80.27268,Stuart,FL,Florida,True,,45947.0,195.6,12085,Martin,"{""12085"": 100}",Martin,12085,False,False,America/New_York,0
34429,0.1518266253869969,0.0285440153514032,0.2348722545943523,0.2793798449612403,28.85737,-82.65152,Crystal River,FL,Florida,True,,9494.0,88.6,12017,Citrus,"{""12017"": 100}",Citrus,12017,False,False,America/New_York,0
34607,0.163826998689384,0.0303463048911103,0.2271916790490341,0.4322113872286883,28.57528,-82.62715,Spring Hill,FL,Florida,True,,9046.0,54.8,12053,Hernando,"{""12053"": 100}",Hernando,12053,False,False,America/New_York,0
34209,0.0916630419022763,0.0245934265893324,0.3006320124982247,0.4756293519014462,27.49489,-82.6433,Bradenton,FL,Florida,True,,33586.0,1027.3,12081,Manatee,"{""12081"": 100}",Manatee,12081,False,False,America/New_York,2
34241,0.0543884521201185,0.0076438848920863,0.4217008797653959,0.5728780487804878,27.24944,-82.37305,Sarasota,FL,Florida,True,,15651.0,86.2,12115,Sarasota,"{""12115"": 100}",Sarasota,12115,False,False,America/New_York,2
34661,0.3269230769230769,0.0,0.1346153846153846,0.2692307692307692,28.62108,-82.26507,Nobleton,FL,Florida,True,,246.0,10.6,12053,Hernando,"{""12053"": 100}",Hernando,12053,False,False,America/New_York,0
34945,0.1805835010060362,0.1553884711779448,0.1869451697127937,0.4182415776499589,27.45219,-80.55213,Fort Pierce,FL,Florida,True,,6214.0,11.0,12111,St. Lucie,"{""12111"": 100}",St. Lucie,12111,False,False,America/New_York,0
34140,0.373887240356083,0.0,0.2040816326530612,0.2307692307692307,25.92531,-81.65888,Goodland,FL,Florida,True,,89.0,25.8,12021,Collier,"{""12021"": 100}",Collier,12021,False,False,America/New_York,0
34211,0.0322544391998201,0.028658125421443,0.4559158134243458,0.6345923261390888,27.44944,-82.37738,Bradenton,FL,Florida,True,,20786.0,235.8,12081,Manatee,"{""12081"": 100}",Manatee,12081,False,False,America/New_York,2
34212,0.0567815874218602,0.025983807192619,0.4448232070048794,0.6689803338291191,27.49559,-82.40528,Bradenton,FL,Florida,True,,24467.0,424.4,12081,Manatee,"{""12081"": 100}",Manatee,12081,False,False,America/New_York,2
34269,0.0804623249611024,0.0343148107150763,0.2366910229645094,0.3976539589442815,27.08865,-81.9639,Arcadia,FL,Florida,True,,5111.0,22.2,12027,DeSoto,"{""12027"": 100}",DeSoto,12027,False,False,America/New_York,0
34288,0.1504641793659134,0.0463904091738337,0.2030284675953967,0.6679931779420125,27.05385,-82.11161,North Port,FL,Florida,True,,16597.0,332.2,12115,Sarasota,"{""12115"": 100}",Sarasota,12115,False,False,America/New_York,2
34289,0.0680838839413961,0.2002298190175237,0.3757174392935982,0.4912621359223301,27.08587,-82.13664,North Port,FL,Florida,True,,4362.0,469.2,12115,Sarasota,"{""12115"": 100}",Sarasota,12115,False,False,America/New_York,2
34291,0.0289285714285714,0.0547458229648062,0.1556244041944709,0.7107594936708861,27.11494,-82.21722,North Port,FL,Florida,True,,8089.0,173.0,12115,Sarasota,"{""12115"": 100}",Sarasota,12115,False,False,America/New_York,2
34604,0.1372105171513146,0.0535374365482233,0.1740769486639317,0.5840069284064665,28.4781,-82.43322,Brooksville,FL,Florida,True,,13964.0,148.4,12053,Hernando,"{""12053"": 100}",Hernando,12053,False,False,America/New_York,0
34637,0.0451179610814534,0.084651052193556,0.3274350390562729,0.5845511482254697,28.29589,-82.46368,Land O'Lakes,FL,Florida,True,,11398.0,297.7,12101,Pasco,"{""12101"": 100}",Pasco,12101,False,False,America/New_York,2
32628,0.1878820090353441,0.2269516728624535,0.0946014127144298,0.4415127528583993,29.65471,-83.16247,Cross City,FL,Florida,True,,5423.0,23.8,12029,Dixie,"{""12029"": 100}",Dixie,12029,False,False,America/New_York,0
32669,0.072039942938659,0.123601909239866,0.3807922664705264,0.610779871213928,29.63666,-82.60015,Newberry,FL,Florida,True,,17436.0,68.3,12001,Alachua,"{""12001"": 83.05, ""12041"": 12.11, ""12075"": 4.84}",Alachua|Gilchrist|Levy,12001|12041|12075,False,False,America/New_York,2
32692,0.08125,0.0,0.1015625,0.4264705882352941,29.32519,-83.15995,Suwannee,FL,Florida,True,,67.0,14.1,12029,Dixie,"{""12029"": 100}",Dixie,12029,False,False,America/New_York,0
32701,0.1459497513970167,0.1912380122057541,0.3455993489129171,0.5977822580645161,28.66509,-81.36916,Altamonte Springs,FL,Florida,True,,24866.0,1704.3,12117,Seminole,"{""12117"": 100}",Seminole,12117,False,False,America/New_York,2
